{
"type": "FeatureCollection",
"crs": { "type": "name", "properties": { "name": "urn:ogc:def:crs:OGC:1.3:CRS84" } },
                                                                                
"features": [
{ "type": "Feature", "properties": { "integer": 1, "都道府県コード": 1, "都道府県名": "北海道", "2次医療圏": "南渡島", "病院名称": "市立函館病院", "住所": "北海道函館市港町１丁目１０－１", "災害拠点病院": "災害拠点病院", "救命救急センター": "救命救急", "DMAT指定医療機関": "DMAT", "被ばく医療機関": "NA", "fX(JGD2000)": 140.728500, "fY(JGD2000)": 41.804900 }, "geometry": { "type": "Point", "coordinates": [ 140.7285, 41.8049 ] } },
{ "type": "Feature", "properties": { "integer": 2, "都道府県コード": 1, "都道府県名": "北海道", "2次医療圏": "北渡島檜山", "病院名称": "八雲総合病院", "住所": "北海道二海郡八雲町東雲町５０", "災害拠点病院": "災害拠点病院", "救命救急センター": "NA", "DMAT指定医療機関": "DMAT", "被ばく医療機関": "NA", "fX(JGD2000)": 140.278000, "fY(JGD2000)": 42.253120 }, "geometry": { "type": "Point", "coordinates": [ 140.278, 42.25312 ] } },
{ "type": "Feature", "properties": { "integer": 3, "都道府県コード": 1, "都道府県名": "北海道", "2次医療圏": "南檜山", "病院名称": "北海道立江差病院", "住所": "北海道檜山郡江差町字伏木戸町４８４", "災害拠点病院": "災害拠点病院", "救命救急センター": "NA", "DMAT指定医療機関": "DMAT", "被ばく医療機関": "NA", "fX(JGD2000)": 140.146000, "fY(JGD2000)": 41.913420 }, "geometry": { "type": "Point", "coordinates": [ 140.146, 41.91342 ] } },
{ "type": "Feature", "properties": { "integer": 4, "都道府県コード": 1, "都道府県名": "北海道", "2次医療圏": "十勝", "病院名称": "帯広厚生病院", "住所": "北海道帯広市西６条南８丁目１", "災害拠点病院": "災害拠点病院", "救命救急センター": "救命救急", "DMAT指定医療機関": "DMAT", "被ばく医療機関": "NA", "fX(JGD2000)": 143.195600, "fY(JGD2000)": 42.922720 }, "geometry": { "type": "Point", "coordinates": [ 143.1956, 42.92272 ] } },
{ "type": "Feature", "properties": { "integer": 5, "都道府県コード": 1, "都道府県名": "北海道", "2次医療圏": "上川中部", "病院名称": "旭川医科大学病院", "住所": "北海道旭川市緑が丘東２条１丁目１－１", "災害拠点病院": "災害拠点病院", "救命救急センター": "救命救急", "DMAT指定医療機関": "DMAT", "被ばく医療機関": "被ばく", "fX(JGD2000)": 142.386300, "fY(JGD2000)": 43.726050 }, "geometry": { "type": "Point", "coordinates": [ 142.3863, 43.72605 ] } },
{ "type": "Feature", "properties": { "integer": 6, "都道府県コード": 1, "都道府県名": "北海道", "2次医療圏": "上川中部", "病院名称": "旭川赤十字病院", "住所": "北海道旭川市曙１条１丁目１番１号", "災害拠点病院": "災害拠点病院", "救命救急センター": "救命救急", "DMAT指定医療機関": "DMAT", "被ばく医療機関": "NA", "fX(JGD2000)": 142.348600, "fY(JGD2000)": 43.770180 }, "geometry": { "type": "Point", "coordinates": [ 142.3486, 43.77018 ] } },
{ "type": "Feature", "properties": { "integer": 7, "都道府県コード": 1, "都道府県名": "北海道", "2次医療圏": "富良野", "病院名称": "富良野協会病院", "住所": "北海道富良野市住吉町１－３０", "災害拠点病院": "災害拠点病院", "救命救急センター": "NA", "DMAT指定医療機関": "DMAT", "被ばく医療機関": "NA", "fX(JGD2000)": 142.392600, "fY(JGD2000)": 43.345600 }, "geometry": { "type": "Point", "coordinates": [ 142.3926, 43.3456 ] } },
{ "type": "Feature", "properties": { "integer": 8, "都道府県コード": 1, "都道府県名": "北海道", "2次医療圏": "上川北部", "病院名称": "名寄市立総合病院", "住所": "北海道名寄市西７条南８丁目１", "災害拠点病院": "災害拠点病院", "救命救急センター": "NA", "DMAT指定医療機関": "DMAT", "被ばく医療機関": "NA", "fX(JGD2000)": 142.451300, "fY(JGD2000)": 44.348390 }, "geometry": { "type": "Point", "coordinates": [ 142.4513, 44.34839 ] } },
{ "type": "Feature", "properties": { "integer": 9, "都道府県コード": 1, "都道府県名": "北海道", "2次医療圏": "北空知", "病院名称": "深川市立病院", "住所": "北海道深川市６条６番１号", "災害拠点病院": "災害拠点病院", "救命救急センター": "NA", "DMAT指定医療機関": "DMAT", "被ばく医療機関": "NA", "fX(JGD2000)": 142.040400, "fY(JGD2000)": 43.716100 }, "geometry": { "type": "Point", "coordinates": [ 142.0404, 43.7161 ] } },
{ "type": "Feature", "properties": { "integer": 10, "都道府県コード": 1, "都道府県名": "北海道", "2次医療圏": "留萌", "病院名称": "留萌市立病院", "住所": "北海道留萌市東雲町２丁目１６－１", "災害拠点病院": "災害拠点病院", "救命救急センター": "NA", "DMAT指定医療機関": "DMAT", "被ばく医療機関": "NA", "fX(JGD2000)": 141.678000, "fY(JGD2000)": 43.930730 }, "geometry": { "type": "Point", "coordinates": [ 141.678, 43.93073 ] } },
{ "type": "Feature", "properties": { "integer": 11, "都道府県コード": 1, "都道府県名": "北海道", "2次医療圏": "宗谷", "病院名称": "市立稚内病院", "住所": "北海道稚内市中央４丁目１１－６", "災害拠点病院": "災害拠点病院", "救命救急センター": "NA", "DMAT指定医療機関": "DMAT", "被ばく医療機関": "NA", "fX(JGD2000)": 141.673400, "fY(JGD2000)": 45.413470 }, "geometry": { "type": "Point", "coordinates": [ 141.6734, 45.41347 ] } },
{ "type": "Feature", "properties": { "integer": 12, "都道府県コード": 1, "都道府県名": "北海道", "2次医療圏": "釧路", "病院名称": "市立釧路総合病院", "住所": "北海道釧路市春湖台１－１２", "災害拠点病院": "災害拠点病院", "救命救急センター": "救命救急", "DMAT指定医療機関": "DMAT", "被ばく医療機関": "NA", "fX(JGD2000)": 144.407800, "fY(JGD2000)": 42.977200 }, "geometry": { "type": "Point", "coordinates": [ 144.4078, 42.9772 ] } },
{ "type": "Feature", "properties": { "integer": 13, "都道府県コード": 1, "都道府県名": "北海道", "2次医療圏": "根室", "病院名称": "市立根室病院", "住所": "北海道根室市有磯町１丁目２番地", "災害拠点病院": "災害拠点病院", "救命救急センター": "NA", "DMAT指定医療機関": "DMAT", "被ばく医療機関": "NA", "fX(JGD2000)": 145.586800, "fY(JGD2000)": 43.334020 }, "geometry": { "type": "Point", "coordinates": [ 145.5868, 43.33402 ] } },
{ "type": "Feature", "properties": { "integer": 14, "都道府県コード": 1, "都道府県名": "北海道", "2次医療圏": "根室", "病院名称": "町立中標津病院", "住所": "北海道標津郡中標津町西１０条南９丁目１－１", "災害拠点病院": "災害拠点病院", "救命救急センター": "NA", "DMAT指定医療機関": "DMAT", "被ばく医療機関": "NA", "fX(JGD2000)": 144.971200, "fY(JGD2000)": 43.537090 }, "geometry": { "type": "Point", "coordinates": [ 144.9712, 43.53709 ] } },
{ "type": "Feature", "properties": { "integer": 15, "都道府県コード": 1, "都道府県名": "北海道", "2次医療圏": "北網", "病院名称": "網走厚生病院", "住所": "北海道網走市北６条西１丁目９", "災害拠点病院": "災害拠点病院", "救命救急センター": "NA", "DMAT指定医療機関": "DMAT", "被ばく医療機関": "NA", "fX(JGD2000)": 144.262900, "fY(JGD2000)": 44.025670 }, "geometry": { "type": "Point", "coordinates": [ 144.2629, 44.02567 ] } },
{ "type": "Feature", "properties": { "integer": 16, "都道府県コード": 1, "都道府県名": "北海道", "2次医療圏": "北網", "病院名称": "北見赤十字病院", "住所": "北海道北見市北６条東２丁目１", "災害拠点病院": "災害拠点病院", "救命救急センター": "救命救急", "DMAT指定医療機関": "DMAT", "被ばく医療機関": "NA", "fX(JGD2000)": 143.893600, "fY(JGD2000)": 43.808810 }, "geometry": { "type": "Point", "coordinates": [ 143.8936, 43.80881 ] } },
{ "type": "Feature", "properties": { "integer": 17, "都道府県コード": 1, "都道府県名": "北海道", "2次医療圏": "遠紋", "病院名称": "遠軽厚生病院", "住所": "北海道紋別郡遠軽町大通北３丁目１－５", "災害拠点病院": "災害拠点病院", "救命救急センター": "NA", "DMAT指定医療機関": "DMAT", "被ばく医療機関": "NA", "fX(JGD2000)": 143.524300, "fY(JGD2000)": 44.062520 }, "geometry": { "type": "Point", "coordinates": [ 143.5243, 44.06252 ] } },
{ "type": "Feature", "properties": { "integer": 18, "都道府県コード": 1, "都道府県名": "北海道", "2次医療圏": "遠紋", "病院名称": "広域紋別病院", "住所": "北海道紋別市落石町１丁目３－３７", "災害拠点病院": "災害拠点病院", "救命救急センター": "NA", "DMAT指定医療機関": "DMAT", "被ばく医療機関": "NA", "fX(JGD2000)": 143.346600, "fY(JGD2000)": 44.361260 }, "geometry": { "type": "Point", "coordinates": [ 143.3466, 44.36126 ] } },
{ "type": "Feature", "properties": { "integer": 19, "都道府県コード": 1, "都道府県名": "北海道", "2次医療圏": "西胆振", "病院名称": "市立室蘭総合病院", "住所": "北海道室蘭市山手町３丁目８－１", "災害拠点病院": "災害拠点病院", "救命救急センター": "NA", "DMAT指定医療機関": "DMAT", "被ばく医療機関": "NA", "fX(JGD2000)": 140.975700, "fY(JGD2000)": 42.314400 }, "geometry": { "type": "Point", "coordinates": [ 140.9757, 42.3144 ] } },
{ "type": "Feature", "properties": { "integer": 20, "都道府県コード": 1, "都道府県名": "北海道", "2次医療圏": "西胆振", "病院名称": "製鉄記念室蘭病院", "住所": "北海道室蘭市知利別町１丁目４５", "災害拠点病院": "NA", "救命救急センター": "NA", "DMAT指定医療機関": "DMAT", "被ばく医療機関": "NA", "fX(JGD2000)": 141.016700, "fY(JGD2000)": 42.357680 }, "geometry": { "type": "Point", "coordinates": [ 141.0167, 42.35768 ] } },
{ "type": "Feature", "properties": { "integer": 21, "都道府県コード": 1, "都道府県名": "北海道", "2次医療圏": "西胆振", "病院名称": "総合病院 伊達赤十字病院", "住所": "北海道伊達市末永町８１番地", "災害拠点病院": "災害拠点病院", "救命救急センター": "NA", "DMAT指定医療機関": "DMAT", "被ばく医療機関": "被ばく", "fX(JGD2000)": 140.867900, "fY(JGD2000)": 42.474190 }, "geometry": { "type": "Point", "coordinates": [ 140.8679, 42.47419 ] } },
{ "type": "Feature", "properties": { "integer": 22, "都道府県コード": 1, "都道府県名": "北海道", "2次医療圏": "西胆振", "病院名称": "日鋼記念病院", "住所": "北海道室蘭市新富町１丁目５－１３", "災害拠点病院": "災害拠点病院", "救命救急センター": "NA", "DMAT指定医療機関": "DMAT", "被ばく医療機関": "NA", "fX(JGD2000)": 140.984900, "fY(JGD2000)": 42.315720 }, "geometry": { "type": "Point", "coordinates": [ 140.9849, 42.31572 ] } },
{ "type": "Feature", "properties": { "integer": 23, "都道府県コード": 1, "都道府県名": "北海道", "2次医療圏": "東胆振", "病院名称": "王子総合病院", "住所": "北海道苫小牧市若草町３丁目４－８", "災害拠点病院": "災害拠点病院", "救命救急センター": "NA", "DMAT指定医療機関": "DMAT", "被ばく医療機関": "NA", "fX(JGD2000)": 141.603900, "fY(JGD2000)": 42.636670 }, "geometry": { "type": "Point", "coordinates": [ 141.6039, 42.63667 ] } },
{ "type": "Feature", "properties": { "integer": 24, "都道府県コード": 1, "都道府県名": "北海道", "2次医療圏": "東胆振", "病院名称": "苫小牧市立病院", "住所": "北海道苫小牧市清水町１丁目５－２０", "災害拠点病院": "災害拠点病院", "救命救急センター": "NA", "DMAT指定医療機関": "DMAT", "被ばく医療機関": "NA", "fX(JGD2000)": 141.603600, "fY(JGD2000)": 42.653130 }, "geometry": { "type": "Point", "coordinates": [ 141.6036, 42.65313 ] } },
{ "type": "Feature", "properties": { "integer": 25, "都道府県コード": 1, "都道府県名": "北海道", "2次医療圏": "日高", "病院名称": "総合病院浦河赤十字病院", "住所": "北海道浦河郡浦河町東町ちのみ１丁目２－１", "災害拠点病院": "災害拠点病院", "救命救急センター": "NA", "DMAT指定医療機関": "DMAT", "被ばく医療機関": "NA", "fX(JGD2000)": 142.788300, "fY(JGD2000)": 42.159710 }, "geometry": { "type": "Point", "coordinates": [ 142.7883, 42.15971 ] } },
{ "type": "Feature", "properties": { "integer": 26, "都道府県コード": 1, "都道府県名": "北海道", "2次医療圏": "札幌", "病院名称": "国立病院機構北海道がんセンター", "住所": "北海道札幌市白石区菊水４条２丁目３－５４", "災害拠点病院": "NA", "救命救急センター": "NA", "DMAT指定医療機関": "NA", "被ばく医療機関": "被ばく", "fX(JGD2000)": 141.375100, "fY(JGD2000)": 43.058420 }, "geometry": { "type": "Point", "coordinates": [ 141.3751, 43.05842 ] } },
{ "type": "Feature", "properties": { "integer": 27, "都道府県コード": 1, "都道府県名": "北海道", "2次医療圏": "札幌", "病院名称": "国立病院機構北海道医療センター", "住所": "北海道札幌市西区山の手５条７丁目１－１", "災害拠点病院": "災害拠点病院", "救命救急センター": "救命救急", "DMAT指定医療機関": "DMAT", "被ばく医療機関": "被ばく", "fX(JGD2000)": 141.290700, "fY(JGD2000)": 43.069510 }, "geometry": { "type": "Point", "coordinates": [ 141.2907, 43.06951 ] } },
{ "type": "Feature", "properties": { "integer": 28, "都道府県コード": 1, "都道府県名": "北海道", "2次医療圏": "札幌", "病院名称": "札幌医科大学附属病院", "住所": "北海道札幌市中央区南１条西１６丁目２９１", "災害拠点病院": "災害拠点病院", "救命救急センター": "救命救急", "DMAT指定医療機関": "DMAT", "被ばく医療機関": "被ばく", "fX(JGD2000)": 141.333300, "fY(JGD2000)": 43.055230 }, "geometry": { "type": "Point", "coordinates": [ 141.3333, 43.05523 ] } },
{ "type": "Feature", "properties": { "integer": 29, "都道府県コード": 1, "都道府県名": "北海道", "2次医療圏": "札幌", "病院名称": "市立札幌病院", "住所": "北海道札幌市中央区北１１条西１３丁目１－１", "災害拠点病院": "災害拠点病院", "救命救急センター": "救命救急", "DMAT指定医療機関": "DMAT", "被ばく医療機関": "NA", "fX(JGD2000)": 141.335200, "fY(JGD2000)": 43.071420 }, "geometry": { "type": "Point", "coordinates": [ 141.3352, 43.07142 ] } },
{ "type": "Feature", "properties": { "integer": 30, "都道府県コード": 1, "都道府県名": "北海道", "2次医療圏": "札幌", "病院名称": "手稲渓仁会病院", "住所": "北海道札幌市手稲区前田１条１２丁目１－４０", "災害拠点病院": "災害拠点病院", "救命救急センター": "救命救急", "DMAT指定医療機関": "DMAT", "被ばく医療機関": "NA", "fX(JGD2000)": 141.242900, "fY(JGD2000)": 43.121860 }, "geometry": { "type": "Point", "coordinates": [ 141.2429, 43.12186 ] } },
{ "type": "Feature", "properties": { "integer": 31, "都道府県コード": 1, "都道府県名": "北海道", "2次医療圏": "札幌", "病院名称": "北海道大学病院", "住所": "北海道札幌市北区北１４条西５丁目", "災害拠点病院": "災害拠点病院", "救命救急センター": "NA", "DMAT指定医療機関": "DMAT", "被ばく医療機関": "被ばく", "fX(JGD2000)": 141.345800, "fY(JGD2000)": 43.077580 }, "geometry": { "type": "Point", "coordinates": [ 141.3458, 43.07758 ] } },
{ "type": "Feature", "properties": { "integer": 32, "都道府県コード": 1, "都道府県名": "北海道", "2次医療圏": "後志", "病院名称": "岩内協会病院", "住所": "北海道岩内郡岩内町字高台２０９－２", "災害拠点病院": "NA", "救命救急センター": "NA", "DMAT指定医療機関": "NA", "被ばく医療機関": "被ばく", "fX(JGD2000)": 140.517600, "fY(JGD2000)": 42.978280 }, "geometry": { "type": "Point", "coordinates": [ 140.5176, 42.97828 ] } },
{ "type": "Feature", "properties": { "integer": 33, "都道府県コード": 1, "都道府県名": "北海道", "2次医療圏": "後志", "病院名称": "小樽市立病院", "住所": "北海道小樽市若松１丁目１－１", "災害拠点病院": "災害拠点病院", "救命救急センター": "NA", "DMAT指定医療機関": "DMAT", "被ばく医療機関": "被ばく", "fX(JGD2000)": 141.007700, "fY(JGD2000)": 43.185700 }, "geometry": { "type": "Point", "coordinates": [ 141.0077, 43.1857 ] } },
{ "type": "Feature", "properties": { "integer": 34, "都道府県コード": 1, "都道府県名": "北海道", "2次医療圏": "後志", "病院名称": "倶知安厚生病院", "住所": "北海道虻田郡倶知安町北４条東１丁目２", "災害拠点病院": "災害拠点病院", "救命救急センター": "NA", "DMAT指定医療機関": "DMAT", "被ばく医療機関": "被ばく", "fX(JGD2000)": 140.754100, "fY(JGD2000)": 42.904390 }, "geometry": { "type": "Point", "coordinates": [ 140.7541, 42.90439 ] } },
{ "type": "Feature", "properties": { "integer": 35, "都道府県コード": 1, "都道府県名": "北海道", "2次医療圏": "後志", "病院名称": "黒松内町国保病院", "住所": "北海道寿都郡黒松内町字黒松内５８６－１", "災害拠点病院": "NA", "救命救急センター": "NA", "DMAT指定医療機関": "NA", "被ばく医療機関": "被ばく", "fX(JGD2000)": 140.308600, "fY(JGD2000)": 42.670750 }, "geometry": { "type": "Point", "coordinates": [ 140.3086, 42.67075 ] } },
{ "type": "Feature", "properties": { "integer": 36, "都道府県コード": 1, "都道府県名": "北海道", "2次医療圏": "後志", "病院名称": "余市協会病院", "住所": "北海道余市郡余市町黒川町１９丁目１－１", "災害拠点病院": "NA", "救命救急センター": "NA", "DMAT指定医療機関": "NA", "被ばく医療機関": "被ばく", "fX(JGD2000)": 140.813500, "fY(JGD2000)": 43.188520 }, "geometry": { "type": "Point", "coordinates": [ 140.8135, 43.18852 ] } },
{ "type": "Feature", "properties": { "integer": 37, "都道府県コード": 1, "都道府県名": "北海道", "2次医療圏": "南空知", "病院名称": "岩見沢市立総合病院", "住所": "北海道岩見沢市９条西７丁目２", "災害拠点病院": "災害拠点病院", "救命救急センター": "NA", "DMAT指定医療機関": "DMAT", "被ばく医療機関": "NA", "fX(JGD2000)": 141.765600, "fY(JGD2000)": 43.195300 }, "geometry": { "type": "Point", "coordinates": [ 141.7656, 43.1953 ] } },
{ "type": "Feature", "properties": { "integer": 38, "都道府県コード": 1, "都道府県名": "北海道", "2次医療圏": "中空知", "病院名称": "砂川市立病院", "住所": "北海道砂川市西４条北３丁目１－１", "災害拠点病院": "災害拠点病院", "救命救急センター": "救命救急", "DMAT指定医療機関": "DMAT", "被ばく医療機関": "NA", "fX(JGD2000)": 141.905100, "fY(JGD2000)": 43.494440 }, "geometry": { "type": "Point", "coordinates": [ 141.9051, 43.49444 ] } },
{ "type": "Feature", "properties": { "integer": 39, "都道府県コード": 2, "都道府県名": "青森県", "2次医療圏": "青森地域", "病院名称": "青森県立中央病院", "住所": "青森県青森市東造道二丁目１－１", "災害拠点病院": "災害拠点病院", "救命救急センター": "救命救急", "DMAT指定医療機関": "DMAT", "被ばく医療機関": "被ばく", "fX(JGD2000)": 140.794200, "fY(JGD2000)": 40.829850 }, "geometry": { "type": "Point", "coordinates": [ 140.7942, 40.82985 ] } },
{ "type": "Feature", "properties": { "integer": 40, "都道府県コード": 2, "都道府県名": "青森県", "2次医療圏": "青森地域", "病院名称": "青森市民病院", "住所": "青森県青森市勝田一丁目１４番２０号", "災害拠点病院": "災害拠点病院", "救命救急センター": "NA", "DMAT指定医療機関": "DMAT", "被ばく医療機関": "NA", "fX(JGD2000)": 140.754800, "fY(JGD2000)": 40.815590 }, "geometry": { "type": "Point", "coordinates": [ 140.7548, 40.81559 ] } },
{ "type": "Feature", "properties": { "integer": 41, "都道府県コード": 2, "都道府県名": "青森県", "2次医療圏": "津軽地域", "病院名称": "黒石病院", "住所": "青森県黒石市北美町１丁目７０", "災害拠点病院": "災害拠点病院", "救命救急センター": "NA", "DMAT指定医療機関": "DMAT", "被ばく医療機関": "NA", "fX(JGD2000)": 140.601200, "fY(JGD2000)": 40.655940 }, "geometry": { "type": "Point", "coordinates": [ 140.6012, 40.65594 ] } },
{ "type": "Feature", "properties": { "integer": 42, "都道府県コード": 2, "都道府県名": "青森県", "2次医療圏": "津軽地域", "病院名称": "弘前市立病院", "住所": "青森県弘前市大町三丁目８番地１", "災害拠点病院": "災害拠点病院", "救命救急センター": "NA", "DMAT指定医療機関": "DMAT", "被ばく医療機関": "NA", "fX(JGD2000)": 140.478600, "fY(JGD2000)": 40.597100 }, "geometry": { "type": "Point", "coordinates": [ 140.4786, 40.5971 ] } },
{ "type": "Feature", "properties": { "integer": 43, "都道府県コード": 2, "都道府県名": "青森県", "2次医療圏": "津軽地域", "病院名称": "弘前大学医学部附属病院", "住所": "青森県弘前市本町５３番地", "災害拠点病院": "NA", "救命救急センター": "NA", "DMAT指定医療機関": "DMAT", "被ばく医療機関": "NA", "fX(JGD2000)": 140.466500, "fY(JGD2000)": 40.600490 }, "geometry": { "type": "Point", "coordinates": [ 140.4665, 40.60049 ] } },
{ "type": "Feature", "properties": { "integer": 44, "都道府県コード": 2, "都道府県名": "青森県", "2次医療圏": "八戸地域", "病院名称": "八戸市立市民病院", "住所": "青森県八戸市田向毘沙門平１", "災害拠点病院": "災害拠点病院", "救命救急センター": "救命救急", "DMAT指定医療機関": "DMAT", "被ばく医療機関": "被ばく", "fX(JGD2000)": 141.513100, "fY(JGD2000)": 40.493180 }, "geometry": { "type": "Point", "coordinates": [ 141.5131, 40.49318 ] } },
{ "type": "Feature", "properties": { "integer": 45, "都道府県コード": 2, "都道府県名": "青森県", "2次医療圏": "八戸地域", "病院名称": "八戸赤十字病院", "住所": "青森県八戸市田面木中明戸２", "災害拠点病院": "NA", "救命救急センター": "NA", "DMAT指定医療機関": "DMAT", "被ばく医療機関": "NA", "fX(JGD2000)": 141.450000, "fY(JGD2000)": 40.500920 }, "geometry": { "type": "Point", "coordinates": [ 141.45, 40.50092 ] } },
{ "type": "Feature", "properties": { "integer": 46, "都道府県コード": 2, "都道府県名": "青森県", "2次医療圏": "西北五地域", "病院名称": "つがる西北五広域連合つがる総合病院", "住所": "青森県五所川原市岩木町１２番地３", "災害拠点病院": "災害拠点病院", "救命救急センター": "NA", "DMAT指定医療機関": "DMAT", "被ばく医療機関": "NA", "fX(JGD2000)": 140.440000, "fY(JGD2000)": 40.807980 }, "geometry": { "type": "Point", "coordinates": [ 140.44, 40.80798 ] } },
{ "type": "Feature", "properties": { "integer": 47, "都道府県コード": 2, "都道府県名": "青森県", "2次医療圏": "上十三地域", "病院名称": "十和田市立中央病院", "住所": "青森県十和田市西十二番町１４番８号", "災害拠点病院": "災害拠点病院", "救命救急センター": "NA", "DMAT指定医療機関": "DMAT", "被ばく医療機関": "NA", "fX(JGD2000)": 141.203200, "fY(JGD2000)": 40.611810 }, "geometry": { "type": "Point", "coordinates": [ 141.2032, 40.61181 ] } },
{ "type": "Feature", "properties": { "integer": 48, "都道府県コード": 2, "都道府県名": "青森県", "2次医療圏": "下北地域", "病院名称": "むつ総合病院", "住所": "青森県むつ市小川町一丁目２番８号", "災害拠点病院": "災害拠点病院", "救命救急センター": "NA", "DMAT指定医療機関": "DMAT", "被ばく医療機関": "NA", "fX(JGD2000)": 141.200800, "fY(JGD2000)": 41.293190 }, "geometry": { "type": "Point", "coordinates": [ 141.2008, 41.29319 ] } },
{ "type": "Feature", "properties": { "integer": 49, "都道府県コード": 3, "都道府県名": "岩手県", "2次医療圏": "盛岡", "病院名称": "岩手医科大学附属病院", "住所": "岩手県盛岡市内丸１９－１", "災害拠点病院": "災害拠点病院", "救命救急センター": "救命救急", "DMAT指定医療機関": "DMAT", "被ばく医療機関": "NA", "fX(JGD2000)": 141.151700, "fY(JGD2000)": 39.705150 }, "geometry": { "type": "Point", "coordinates": [ 141.1517, 39.70515 ] } },
{ "type": "Feature", "properties": { "integer": 50, "都道府県コード": 3, "都道府県名": "岩手県", "2次医療圏": "盛岡", "病院名称": "岩手県立中央病院", "住所": "岩手県盛岡市上田一丁目４番１号", "災害拠点病院": "災害拠点病院", "救命救急センター": "NA", "DMAT指定医療機関": "DMAT", "被ばく医療機関": "NA", "fX(JGD2000)": 141.146400, "fY(JGD2000)": 39.712830 }, "geometry": { "type": "Point", "coordinates": [ 141.1464, 39.71283 ] } },
{ "type": "Feature", "properties": { "integer": 51, "都道府県コード": 3, "都道府県名": "岩手県", "2次医療圏": "盛岡", "病院名称": "盛岡赤十字病院", "住所": "岩手県盛岡市三本柳6地割1-1", "災害拠点病院": "災害拠点病院", "救命救急センター": "NA", "DMAT指定医療機関": "DMAT", "被ばく医療機関": "NA", "fX(JGD2000)": 141.166400, "fY(JGD2000)": 39.661330 }, "geometry": { "type": "Point", "coordinates": [ 141.1664, 39.66133 ] } },
{ "type": "Feature", "properties": { "integer": 52, "都道府県コード": 3, "都道府県名": "岩手県", "2次医療圏": "岩手中部", "病院名称": "県立中部病院", "住所": "岩手県北上市村崎野17地割10番地", "災害拠点病院": "災害拠点病院", "救命救急センター": "NA", "DMAT指定医療機関": "DMAT", "被ばく医療機関": "NA", "fX(JGD2000)": 141.105000, "fY(JGD2000)": 39.330370 }, "geometry": { "type": "Point", "coordinates": [ 141.105, 39.33037 ] } },
{ "type": "Feature", "properties": { "integer": 53, "都道府県コード": 3, "都道府県名": "岩手県", "2次医療圏": "胆江", "病院名称": "県立胆沢病院", "住所": "岩手県奥州市水沢区字龍ケ馬場６１番地", "災害拠点病院": "災害拠点病院", "救命救急センター": "NA", "DMAT指定医療機関": "DMAT", "被ばく医療機関": "NA", "fX(JGD2000)": 141.135700, "fY(JGD2000)": 39.123530 }, "geometry": { "type": "Point", "coordinates": [ 141.1357, 39.12353 ] } },
{ "type": "Feature", "properties": { "integer": 54, "都道府県コード": 3, "都道府県名": "岩手県", "2次医療圏": "両磐", "病院名称": "県立磐井病院", "住所": "岩手県一関市狐禅寺字大平17", "災害拠点病院": "災害拠点病院", "救命救急センター": "NA", "DMAT指定医療機関": "DMAT", "被ばく医療機関": "NA", "fX(JGD2000)": 141.173100, "fY(JGD2000)": 38.935460 }, "geometry": { "type": "Point", "coordinates": [ 141.1731, 38.93546 ] } },
{ "type": "Feature", "properties": { "integer": 55, "都道府県コード": 3, "都道府県名": "岩手県", "2次医療圏": "気仙", "病院名称": "岩手県立大船渡病院", "住所": "岩手県大船渡市大船渡町字山馬越10-1", "災害拠点病院": "災害拠点病院", "救命救急センター": "救命救急", "DMAT指定医療機関": "DMAT", "被ばく医療機関": "NA", "fX(JGD2000)": 141.707600, "fY(JGD2000)": 39.072630 }, "geometry": { "type": "Point", "coordinates": [ 141.7076, 39.07263 ] } },
{ "type": "Feature", "properties": { "integer": 56, "都道府県コード": 3, "都道府県名": "岩手県", "2次医療圏": "釜石", "病院名称": "県立釜石病院", "住所": "岩手県釜石市甲子町第１０地割４８３番６", "災害拠点病院": "災害拠点病院", "救命救急センター": "NA", "DMAT指定医療機関": "DMAT", "被ばく医療機関": "NA", "fX(JGD2000)": 141.813200, "fY(JGD2000)": 39.255640 }, "geometry": { "type": "Point", "coordinates": [ 141.8132, 39.25564 ] } },
{ "type": "Feature", "properties": { "integer": 57, "都道府県コード": 3, "都道府県名": "岩手県", "2次医療圏": "宮古", "病院名称": "県立宮古病院", "住所": "岩手県宮古市崎鍬ケ崎第1地割11番地26", "災害拠点病院": "災害拠点病院", "救命救急センター": "NA", "DMAT指定医療機関": "DMAT", "被ばく医療機関": "NA", "fX(JGD2000)": 141.947900, "fY(JGD2000)": 39.658190 }, "geometry": { "type": "Point", "coordinates": [ 141.9479, 39.65819 ] } },
{ "type": "Feature", "properties": { "integer": 58, "都道府県コード": 3, "都道府県名": "岩手県", "2次医療圏": "久慈", "病院名称": "県立久慈病院", "住所": "岩手県久慈市旭町１０地割１番", "災害拠点病院": "災害拠点病院", "救命救急センター": "救命救急", "DMAT指定医療機関": "DMAT", "被ばく医療機関": "NA", "fX(JGD2000)": 141.777400, "fY(JGD2000)": 40.200240 }, "geometry": { "type": "Point", "coordinates": [ 141.7774, 40.20024 ] } },
{ "type": "Feature", "properties": { "integer": 59, "都道府県コード": 3, "都道府県名": "岩手県", "2次医療圏": "二戸", "病院名称": "県立二戸病院", "住所": "岩手県二戸市堀野字大川原毛３８－２", "災害拠点病院": "災害拠点病院", "救命救急センター": "NA", "DMAT指定医療機関": "DMAT", "被ばく医療機関": "NA", "fX(JGD2000)": 141.306600, "fY(JGD2000)": 40.300670 }, "geometry": { "type": "Point", "coordinates": [ 141.3066, 40.30067 ] } },
{ "type": "Feature", "properties": { "integer": 60, "都道府県コード": 4, "都道府県名": "宮城県", "2次医療圏": "仙南", "病院名称": "公立刈田綜合病院", "住所": "宮城県白石市福岡蔵本字下原沖３６", "災害拠点病院": "災害拠点病院", "救命救急センター": "NA", "DMAT指定医療機関": "DMAT", "被ばく医療機関": "NA", "fX(JGD2000)": 140.610700, "fY(JGD2000)": 38.011680 }, "geometry": { "type": "Point", "coordinates": [ 140.6107, 38.01168 ] } },
{ "type": "Feature", "properties": { "integer": 61, "都道府県コード": 4, "都道府県名": "宮城県", "2次医療圏": "仙南", "病院名称": "みやぎ県南中核病院", "住所": "宮城県柴田郡大河原町字西38-1", "災害拠点病院": "災害拠点病院", "救命救急センター": "救命救急", "DMAT指定医療機関": "DMAT", "被ばく医療機関": "NA", "fX(JGD2000)": 140.732900, "fY(JGD2000)": 38.062080 }, "geometry": { "type": "Point", "coordinates": [ 140.7329, 38.06208 ] } },
{ "type": "Feature", "properties": { "integer": 62, "都道府県コード": 4, "都道府県名": "宮城県", "2次医療圏": "仙台", "病院名称": "東北大学病院", "住所": "宮城県仙台市青葉区星陵町１－１", "災害拠点病院": "災害拠点病院", "救命救急センター": "救命救急", "DMAT指定医療機関": "DMAT", "被ばく医療機関": "被ばく", "fX(JGD2000)": 140.860800, "fY(JGD2000)": 38.272220 }, "geometry": { "type": "Point", "coordinates": [ 140.8608, 38.27222 ] } },
{ "type": "Feature", "properties": { "integer": 63, "都道府県コード": 4, "都道府県名": "宮城県", "2次医療圏": "仙台", "病院名称": "東北労災病院", "住所": "宮城県仙台市青葉区台原４－３－２", "災害拠点病院": "災害拠点病院", "救命救急センター": "NA", "DMAT指定医療機関": "DMAT", "被ばく医療機関": "NA", "fX(JGD2000)": 140.875000, "fY(JGD2000)": 38.284310 }, "geometry": { "type": "Point", "coordinates": [ 140.875, 38.28431 ] } },
{ "type": "Feature", "properties": { "integer": 64, "都道府県コード": 4, "都道府県名": "宮城県", "2次医療圏": "仙台", "病院名称": "仙台医療センター", "住所": "宮城県仙台市宮城野区宮城野２－８－８", "災害拠点病院": "災害拠点病院", "救命救急センター": "救命救急", "DMAT指定医療機関": "DMAT", "被ばく医療機関": "被ばく", "fX(JGD2000)": 140.908300, "fY(JGD2000)": 38.261230 }, "geometry": { "type": "Point", "coordinates": [ 140.9083, 38.26123 ] } },
{ "type": "Feature", "properties": { "integer": 65, "都道府県コード": 4, "都道府県名": "宮城県", "2次医療圏": "仙台", "病院名称": "仙台オープン病院", "住所": "宮城県仙台市宮城野区鶴ヶ谷５－２２－１", "災害拠点病院": "災害拠点病院", "救命救急センター": "NA", "DMAT指定医療機関": "DMAT", "被ばく医療機関": "NA", "fX(JGD2000)": 140.918000, "fY(JGD2000)": 38.294850 }, "geometry": { "type": "Point", "coordinates": [ 140.918, 38.29485 ] } },
{ "type": "Feature", "properties": { "integer": 66, "都道府県コード": 4, "都道府県名": "宮城県", "2次医療圏": "仙台", "病院名称": "東北薬科大学病院", "住所": "宮城県仙台市宮城野区福室１－１２－１", "災害拠点病院": "災害拠点病院", "救命救急センター": "NA", "DMAT指定医療機関": "DMAT", "被ばく医療機関": "NA", "fX(JGD2000)": 140.967000, "fY(JGD2000)": 38.268680 }, "geometry": { "type": "Point", "coordinates": [ 140.967, 38.26868 ] } },
{ "type": "Feature", "properties": { "integer": 67, "都道府県コード": 4, "都道府県名": "宮城県", "2次医療圏": "仙台", "病院名称": "仙台市立病院", "住所": "宮城県仙台市太白区あすと長町一丁目１－１", "災害拠点病院": "災害拠点病院", "救命救急センター": "救命救急", "DMAT指定医療機関": "DMAT", "被ばく医療機関": "NA", "fX(JGD2000)": 140.888300, "fY(JGD2000)": 38.232000 }, "geometry": { "type": "Point", "coordinates": [ 140.8883, 38.232 ] } },
{ "type": "Feature", "properties": { "integer": 68, "都道府県コード": 4, "都道府県名": "宮城県", "2次医療圏": "仙台", "病院名称": "仙台赤十字病院", "住所": "宮城県仙台市太白区八木山本町２－４３－３", "災害拠点病院": "災害拠点病院", "救命救急センター": "NA", "DMAT指定医療機関": "DMAT", "被ばく医療機関": "NA", "fX(JGD2000)": 140.839800, "fY(JGD2000)": 38.237130 }, "geometry": { "type": "Point", "coordinates": [ 140.8398, 38.23713 ] } },
{ "type": "Feature", "properties": { "integer": 69, "都道府県コード": 4, "都道府県名": "宮城県", "2次医療圏": "仙台", "病院名称": "坂総合病院", "住所": "宮城県塩竃市錦町１６－５", "災害拠点病院": "災害拠点病院", "救命救急センター": "NA", "DMAT指定医療機関": "DMAT", "被ばく医療機関": "NA", "fX(JGD2000)": 141.015500, "fY(JGD2000)": 38.306460 }, "geometry": { "type": "Point", "coordinates": [ 141.0155, 38.30646 ] } },
{ "type": "Feature", "properties": { "integer": 70, "都道府県コード": 4, "都道府県名": "宮城県", "2次医療圏": "仙台", "病院名称": "総合南東北病院", "住所": "宮城県岩沼市里の杜１－２－５", "災害拠点病院": "NA", "救命救急センター": "NA", "DMAT指定医療機関": "DMAT", "被ばく医療機関": "NA", "fX(JGD2000)": 140.876900, "fY(JGD2000)": 38.108160 }, "geometry": { "type": "Point", "coordinates": [ 140.8769, 38.10816 ] } },
{ "type": "Feature", "properties": { "integer": 71, "都道府県コード": 4, "都道府県名": "宮城県", "2次医療圏": "大崎", "病院名称": "大崎市民病院", "住所": "宮城県大崎市古川穂波三丁目８－１", "災害拠点病院": "災害拠点病院", "救命救急センター": "救命救急", "DMAT指定医療機関": "DMAT", "被ばく医療機関": "NA", "fX(JGD2000)": 140.944700, "fY(JGD2000)": 38.565970 }, "geometry": { "type": "Point", "coordinates": [ 140.9447, 38.56597 ] } },
{ "type": "Feature", "properties": { "integer": 72, "都道府県コード": 4, "都道府県名": "宮城県", "2次医療圏": "栗原", "病院名称": "栗原市立栗原中央病院", "住所": "宮城県栗原市築館宮野中央３－１－１", "災害拠点病院": "災害拠点病院", "救命救急センター": "NA", "DMAT指定医療機関": "DMAT", "被ばく医療機関": "NA", "fX(JGD2000)": 141.020300, "fY(JGD2000)": 38.746580 }, "geometry": { "type": "Point", "coordinates": [ 141.0203, 38.74658 ] } },
{ "type": "Feature", "properties": { "integer": 73, "都道府県コード": 4, "都道府県名": "宮城県", "2次医療圏": "登米", "病院名称": "登米市立登米市民病院", "住所": "宮城県登米市迫町佐沼字下田中２５", "災害拠点病院": "災害拠点病院", "救命救急センター": "NA", "DMAT指定医療機関": "DMAT", "被ばく医療機関": "NA", "fX(JGD2000)": 141.192400, "fY(JGD2000)": 38.687150 }, "geometry": { "type": "Point", "coordinates": [ 141.1924, 38.68715 ] } },
{ "type": "Feature", "properties": { "integer": 74, "都道府県コード": 4, "都道府県名": "宮城県", "2次医療圏": "石巻", "病院名称": "石巻赤十字病院", "住所": "宮城県石巻市蛇田字西道下７１", "災害拠点病院": "災害拠点病院", "救命救急センター": "救命救急", "DMAT指定医療機関": "DMAT", "被ばく医療機関": "被ばく", "fX(JGD2000)": 141.279700, "fY(JGD2000)": 38.459120 }, "geometry": { "type": "Point", "coordinates": [ 141.2797, 38.45912 ] } },
{ "type": "Feature", "properties": { "integer": 75, "都道府県コード": 4, "都道府県名": "宮城県", "2次医療圏": "気仙沼", "病院名称": "気仙沼市立病院", "住所": "宮城県気仙沼市田中１８４", "災害拠点病院": "災害拠点病院", "救命救急センター": "NA", "DMAT指定医療機関": "DMAT", "被ばく医療機関": "NA", "fX(JGD2000)": 141.562300, "fY(JGD2000)": 38.895540 }, "geometry": { "type": "Point", "coordinates": [ 141.5623, 38.89554 ] } },
{ "type": "Feature", "properties": { "integer": 76, "都道府県コード": 5, "都道府県名": "秋田県", "2次医療圏": "大館・鹿角", "病院名称": "大館市立総合病院", "住所": "秋田県大館市豊町３番１号", "災害拠点病院": "災害拠点病院", "救命救急センター": "NA", "DMAT指定医療機関": "DMAT", "被ばく医療機関": "NA", "fX(JGD2000)": 140.555200, "fY(JGD2000)": 40.273210 }, "geometry": { "type": "Point", "coordinates": [ 140.5552, 40.27321 ] } },
{ "type": "Feature", "properties": { "integer": 77, "都道府県コード": 5, "都道府県名": "秋田県", "2次医療圏": "大館・鹿角", "病院名称": "かづの厚生病院", "住所": "秋田県鹿角市花輪向畑１８番地", "災害拠点病院": "災害拠点病院", "救命救急センター": "NA", "DMAT指定医療機関": "DMAT", "被ばく医療機関": "NA", "fX(JGD2000)": 140.785300, "fY(JGD2000)": 40.219000 }, "geometry": { "type": "Point", "coordinates": [ 140.7853, 40.219 ] } },
{ "type": "Feature", "properties": { "integer": 78, "都道府県コード": 5, "都道府県名": "秋田県", "2次医療圏": "北秋田", "病院名称": "北秋田市民病院", "住所": "秋田県北秋田市下杉上清水沢１６－２９", "災害拠点病院": "災害拠点病院", "救命救急センター": "NA", "DMAT指定医療機関": "DMAT", "被ばく医療機関": "NA", "fX(JGD2000)": 140.356400, "fY(JGD2000)": 40.166750 }, "geometry": { "type": "Point", "coordinates": [ 140.3564, 40.16675 ] } },
{ "type": "Feature", "properties": { "integer": 79, "都道府県コード": 5, "都道府県名": "秋田県", "2次医療圏": "能代・山本", "病院名称": "能代厚生医療センター", "住所": "秋田県能代市落合上前田地内", "災害拠点病院": "災害拠点病院", "救命救急センター": "NA", "DMAT指定医療機関": "DMAT", "被ばく医療機関": "NA", "fX(JGD2000)": 140.023200, "fY(JGD2000)": 40.226690 }, "geometry": { "type": "Point", "coordinates": [ 140.0232, 40.22669 ] } },
{ "type": "Feature", "properties": { "integer": 80, "都道府県コード": 5, "都道府県名": "秋田県", "2次医療圏": "秋田市", "病院名称": "秋田厚生医療センター", "住所": "秋田県秋田市飯島西袋１－１－１", "災害拠点病院": "災害拠点病院", "救命救急センター": "NA", "DMAT指定医療機関": "DMAT", "被ばく医療機関": "NA", "fX(JGD2000)": 140.092600, "fY(JGD2000)": 39.767070 }, "geometry": { "type": "Point", "coordinates": [ 140.0926, 39.76707 ] } },
{ "type": "Feature", "properties": { "integer": 81, "都道府県コード": 5, "都道府県名": "秋田県", "2次医療圏": "秋田市", "病院名称": "秋田赤十字病院", "住所": "秋田県秋田市上北手猿田字苗代沢２２２－１", "災害拠点病院": "災害拠点病院", "救命救急センター": "救命救急", "DMAT指定医療機関": "DMAT", "被ばく医療機関": "NA", "fX(JGD2000)": 140.155200, "fY(JGD2000)": 39.685180 }, "geometry": { "type": "Point", "coordinates": [ 140.1552, 39.68518 ] } },
{ "type": "Feature", "properties": { "integer": 82, "都道府県コード": 5, "都道府県名": "秋田県", "2次医療圏": "秋田市", "病院名称": "秋田大学医学部附属病院", "住所": "秋田県秋田市広面蓮沼４４番２", "災害拠点病院": "災害拠点病院", "救命救急センター": "NA", "DMAT指定医療機関": "DMAT", "被ばく医療機関": "NA", "fX(JGD2000)": 140.149600, "fY(JGD2000)": 39.731010 }, "geometry": { "type": "Point", "coordinates": [ 140.1496, 39.73101 ] } },
{ "type": "Feature", "properties": { "integer": 83, "都道府県コード": 5, "都道府県名": "秋田県", "2次医療圏": "秋田市", "病院名称": "秋田脳研センター", "住所": "秋田県秋田市千秋久保田町６番１０号", "災害拠点病院": "災害拠点病院", "救命救急センター": "NA", "DMAT指定医療機関": "DMAT", "被ばく医療機関": "NA", "fX(JGD2000)": 140.126600, "fY(JGD2000)": 39.719960 }, "geometry": { "type": "Point", "coordinates": [ 140.1266, 39.71996 ] } },
{ "type": "Feature", "properties": { "integer": 84, "都道府県コード": 5, "都道府県名": "秋田県", "2次医療圏": "秋田市", "病院名称": "市立秋田総合病院", "住所": "秋田県秋田市川元松丘町４番３０号", "災害拠点病院": "NA", "救命救急センター": "NA", "DMAT指定医療機関": "DMAT", "被ばく医療機関": "NA", "fX(JGD2000)": 140.103100, "fY(JGD2000)": 39.712440 }, "geometry": { "type": "Point", "coordinates": [ 140.1031, 39.71244 ] } },
{ "type": "Feature", "properties": { "integer": 85, "都道府県コード": 5, "都道府県名": "秋田県", "2次医療圏": "由利本荘・にかほ", "病院名称": "由利組合総合病院", "住所": "秋田県由利本荘市川口家後３８", "災害拠点病院": "災害拠点病院", "救命救急センター": "NA", "DMAT指定医療機関": "DMAT", "被ばく医療機関": "NA", "fX(JGD2000)": 140.060900, "fY(JGD2000)": 39.405280 }, "geometry": { "type": "Point", "coordinates": [ 140.0609, 39.40528 ] } },
{ "type": "Feature", "properties": { "integer": 86, "都道府県コード": 5, "都道府県名": "秋田県", "2次医療圏": "大仙・仙北", "病院名称": "大曲厚生医療センター", "住所": "秋田県大仙市大曲通町８－６５", "災害拠点病院": "災害拠点病院", "救命救急センター": "NA", "DMAT指定医療機関": "DMAT", "被ばく医療機関": "NA", "fX(JGD2000)": 140.476900, "fY(JGD2000)": 39.465120 }, "geometry": { "type": "Point", "coordinates": [ 140.4769, 39.46512 ] } },
{ "type": "Feature", "properties": { "integer": 87, "都道府県コード": 5, "都道府県名": "秋田県", "2次医療圏": "大仙・仙北", "病院名称": "市立角館総合病院", "住所": "秋田県仙北市角館町上野１８番地", "災害拠点病院": "災害拠点病院", "救命救急センター": "NA", "DMAT指定医療機関": "DMAT", "被ばく医療機関": "NA", "fX(JGD2000)": 140.568200, "fY(JGD2000)": 39.586320 }, "geometry": { "type": "Point", "coordinates": [ 140.5682, 39.58632 ] } },
{ "type": "Feature", "properties": { "integer": 88, "都道府県コード": 5, "都道府県名": "秋田県", "2次医療圏": "横手", "病院名称": "平鹿総合病院", "住所": "秋田県横手市前郷八ツ口３番１", "災害拠点病院": "災害拠点病院", "救命救急センター": "NA", "DMAT指定医療機関": "DMAT", "被ばく医療機関": "NA", "fX(JGD2000)": 140.549300, "fY(JGD2000)": 39.311330 }, "geometry": { "type": "Point", "coordinates": [ 140.5493, 39.31133 ] } },
{ "type": "Feature", "properties": { "integer": 89, "都道府県コード": 5, "都道府県名": "秋田県", "2次医療圏": "湯沢・雄勝", "病院名称": "雄勝中央病院", "住所": "秋田県湯沢市山田字勇ヶ岡２５", "災害拠点病院": "災害拠点病院", "救命救急センター": "NA", "DMAT指定医療機関": "DMAT", "被ばく医療機関": "NA", "fX(JGD2000)": 140.454600, "fY(JGD2000)": 39.145640 }, "geometry": { "type": "Point", "coordinates": [ 140.4546, 39.14564 ] } },
{ "type": "Feature", "properties": { "integer": 90, "都道府県コード": 6, "都道府県名": "山形県", "2次医療圏": "置賜", "病院名称": "公立置賜総合病院", "住所": "山形県東置賜郡川西町大字西大塚2000", "災害拠点病院": "災害拠点病院", "救命救急センター": "救命救急", "DMAT指定医療機関": "DMAT", "被ばく医療機関": "NA", "fX(JGD2000)": 140.056800, "fY(JGD2000)": 38.051050 }, "geometry": { "type": "Point", "coordinates": [ 140.0568, 38.05105 ] } },
{ "type": "Feature", "properties": { "integer": 91, "都道府県コード": 6, "都道府県名": "山形県", "2次医療圏": "庄内", "病院名称": "日本海総合病院", "住所": "山形県酒田市あきほ町３０", "災害拠点病院": "災害拠点病院", "救命救急センター": "NA", "DMAT指定医療機関": "DMAT", "被ばく医療機関": "NA", "fX(JGD2000)": 139.854300, "fY(JGD2000)": 38.890490 }, "geometry": { "type": "Point", "coordinates": [ 139.8543, 38.89049 ] } },
{ "type": "Feature", "properties": { "integer": 92, "都道府県コード": 6, "都道府県名": "山形県", "2次医療圏": "庄内", "病院名称": "鶴岡市立荘内病院", "住所": "山形県鶴岡市泉町４番２０号", "災害拠点病院": "災害拠点病院", "救命救急センター": "NA", "DMAT指定医療機関": "DMAT", "被ばく医療機関": "NA", "fX(JGD2000)": 139.830000, "fY(JGD2000)": 38.731860 }, "geometry": { "type": "Point", "coordinates": [ 139.83, 38.73186 ] } },
{ "type": "Feature", "properties": { "integer": 93, "都道府県コード": 6, "都道府県名": "山形県", "2次医療圏": "村山", "病院名称": "国立大学法人山形大学医学部附属病院", "住所": "山形県山形市飯田西二丁目２番２号", "災害拠点病院": "NA", "救命救急センター": "NA", "DMAT指定医療機関": "DMAT", "被ばく医療機関": "NA", "fX(JGD2000)": 140.317400, "fY(JGD2000)": 38.215200 }, "geometry": { "type": "Point", "coordinates": [ 140.3174, 38.2152 ] } },
{ "type": "Feature", "properties": { "integer": 94, "都道府県コード": 6, "都道府県名": "山形県", "2次医療圏": "村山", "病院名称": "社会福祉法人恩賜財団済生会山形済生病院", "住所": "山形県山形市沖町７９番地の１", "災害拠点病院": "災害拠点病院", "救命救急センター": "NA", "DMAT指定医療機関": "DMAT", "被ばく医療機関": "NA", "fX(JGD2000)": 140.335300, "fY(JGD2000)": 38.285910 }, "geometry": { "type": "Point", "coordinates": [ 140.3353, 38.28591 ] } },
{ "type": "Feature", "properties": { "integer": 95, "都道府県コード": 6, "都道府県名": "山形県", "2次医療圏": "村山", "病院名称": "山形市立病院済生館", "住所": "山形県山形市七日町一丁目３番２６号", "災害拠点病院": "災害拠点病院", "救命救急センター": "NA", "DMAT指定医療機関": "DMAT", "被ばく医療機関": "NA", "fX(JGD2000)": 140.337500, "fY(JGD2000)": 38.253260 }, "geometry": { "type": "Point", "coordinates": [ 140.3375, 38.25326 ] } },
{ "type": "Feature", "properties": { "integer": 96, "都道府県コード": 6, "都道府県名": "山形県", "2次医療圏": "村山", "病院名称": "山形県立中央病院", "住所": "山形県山形市大字青柳１８００", "災害拠点病院": "災害拠点病院", "救命救急センター": "救命救急", "DMAT指定医療機関": "DMAT", "被ばく医療機関": "NA", "fX(JGD2000)": 140.346700, "fY(JGD2000)": 38.301040 }, "geometry": { "type": "Point", "coordinates": [ 140.3467, 38.30104 ] } },
{ "type": "Feature", "properties": { "integer": 97, "都道府県コード": 6, "都道府県名": "山形県", "2次医療圏": "最上", "病院名称": "山形県立新庄病院", "住所": "山形県新庄市若葉町１２－５５", "災害拠点病院": "災害拠点病院", "救命救急センター": "NA", "DMAT指定医療機関": "DMAT", "被ばく医療機関": "NA", "fX(JGD2000)": 140.302600, "fY(JGD2000)": 38.757510 }, "geometry": { "type": "Point", "coordinates": [ 140.3026, 38.75751 ] } },
{ "type": "Feature", "properties": { "integer": 98, "都道府県コード": 7, "都道府県名": "福島県", "2次医療圏": "県北", "病院名称": "県立医大病院", "住所": "福島県福島市光が丘１", "災害拠点病院": "災害拠点病院", "救命救急センター": "救命救急", "DMAT指定医療機関": "DMAT", "被ばく医療機関": "被ばく", "fX(JGD2000)": 140.472700, "fY(JGD2000)": 37.689940 }, "geometry": { "type": "Point", "coordinates": [ 140.4727, 37.68994 ] } },
{ "type": "Feature", "properties": { "integer": 99, "都道府県コード": 7, "都道府県名": "福島県", "2次医療圏": "県北", "病院名称": "福島赤十字病院", "住所": "福島県福島市入江町１１－３１", "災害拠点病院": "災害拠点病院", "救命救急センター": "NA", "DMAT指定医療機関": "DMAT", "被ばく医療機関": "NA", "fX(JGD2000)": 140.480800, "fY(JGD2000)": 37.769830 }, "geometry": { "type": "Point", "coordinates": [ 140.4808, 37.76983 ] } },
{ "type": "Feature", "properties": { "integer": 100, "都道府県コード": 7, "都道府県名": "福島県", "2次医療圏": "県中", "病院名称": "太田西ノ内病院", "住所": "福島県郡山市西ノ内二丁目５番２０号", "災害拠点病院": "災害拠点病院", "救命救急センター": "救命救急", "DMAT指定医療機関": "DMAT", "被ばく医療機関": "NA", "fX(JGD2000)": 140.365900, "fY(JGD2000)": 37.406360 }, "geometry": { "type": "Point", "coordinates": [ 140.3659, 37.40636 ] } },
{ "type": "Feature", "properties": { "integer": 101, "都道府県コード": 7, "都道府県名": "福島県", "2次医療圏": "県南", "病院名称": "ＪＡ福島厚生連 白河厚生総合病院", "住所": "福島県白河市豊地上弥次郎２番地１", "災害拠点病院": "災害拠点病院", "救命救急センター": "NA", "DMAT指定医療機関": "DMAT", "被ばく医療機関": "NA", "fX(JGD2000)": 140.215900, "fY(JGD2000)": 37.145430 }, "geometry": { "type": "Point", "coordinates": [ 140.2159, 37.14543 ] } },
{ "type": "Feature", "properties": { "integer": 102, "都道府県コード": 7, "都道府県名": "福島県", "2次医療圏": "会津", "病院名称": "会津中央病院", "住所": "福島県会津若松市鶴賀町１－１", "災害拠点病院": "災害拠点病院", "救命救急センター": "救命救急", "DMAT指定医療機関": "DMAT", "被ばく医療機関": "NA", "fX(JGD2000)": 139.947000, "fY(JGD2000)": 37.520530 }, "geometry": { "type": "Point", "coordinates": [ 139.947, 37.52053 ] } },
{ "type": "Feature", "properties": { "integer": 103, "都道府県コード": 7, "都道府県名": "福島県", "2次医療圏": "南会津", "病院名称": "福島県立南会津病院", "住所": "福島県南会津郡南会津町永田字風下１４－１", "災害拠点病院": "災害拠点病院", "救命救急センター": "NA", "DMAT指定医療機関": "DMAT", "被ばく医療機関": "NA", "fX(JGD2000)": 139.760600, "fY(JGD2000)": 37.206080 }, "geometry": { "type": "Point", "coordinates": [ 139.7606, 37.20608 ] } },
{ "type": "Feature", "properties": { "integer": 104, "都道府県コード": 7, "都道府県名": "福島県", "2次医療圏": "相双", "病院名称": "南相馬市立総合病院", "住所": "福島県南相馬市原町区高見町２－５４－６", "災害拠点病院": "災害拠点病院", "救命救急センター": "NA", "DMAT指定医療機関": "DMAT", "被ばく医療機関": "NA", "fX(JGD2000)": 140.985100, "fY(JGD2000)": 37.637410 }, "geometry": { "type": "Point", "coordinates": [ 140.9851, 37.63741 ] } },
{ "type": "Feature", "properties": { "integer": 105, "都道府県コード": 7, "都道府県名": "福島県", "2次医療圏": "いわき", "病院名称": "総合磐城共立病院", "住所": "福島県いわき市内郷御厩町久世原１６", "災害拠点病院": "災害拠点病院", "救命救急センター": "救命救急", "DMAT指定医療機関": "DMAT", "被ばく医療機関": "NA", "fX(JGD2000)": 140.868100, "fY(JGD2000)": 37.041940 }, "geometry": { "type": "Point", "coordinates": [ 140.8681, 37.04194 ] } },
{ "type": "Feature", "properties": { "integer": 106, "都道府県コード": 8, "都道府県名": "茨城県", "2次医療圏": "水戸", "病院名称": "茨城県立中央病院", "住所": "茨城県笠間市鯉淵６５２８", "災害拠点病院": "災害拠点病院", "救命救急センター": "NA", "DMAT指定医療機関": "DMAT", "被ばく医療機関": "被ばく", "fX(JGD2000)": 140.321100, "fY(JGD2000)": 36.351110 }, "geometry": { "type": "Point", "coordinates": [ 140.3211, 36.35111 ] } },
{ "type": "Feature", "properties": { "integer": 107, "都道府県コード": 8, "都道府県名": "茨城県", "2次医療圏": "水戸", "病院名称": "水戸医療センター", "住所": "茨城県東茨城郡茨城町桜の郷２８０番地", "災害拠点病院": "災害拠点病院", "救命救急センター": "救命救急", "DMAT指定医療機関": "DMAT", "被ばく医療機関": "被ばく", "fX(JGD2000)": 140.409800, "fY(JGD2000)": 36.324960 }, "geometry": { "type": "Point", "coordinates": [ 140.4098, 36.32496 ] } },
{ "type": "Feature", "properties": { "integer": 108, "都道府県コード": 8, "都道府県名": "茨城県", "2次医療圏": "水戸", "病院名称": "水戸協同病院", "住所": "茨城県水戸市宮町３－２－７", "災害拠点病院": "NA", "救命救急センター": "NA", "DMAT指定医療機関": "DMAT", "被ばく医療機関": "NA", "fX(JGD2000)": 140.471400, "fY(JGD2000)": 36.373170 }, "geometry": { "type": "Point", "coordinates": [ 140.4714, 36.37317 ] } },
{ "type": "Feature", "properties": { "integer": 109, "都道府県コード": 8, "都道府県名": "茨城県", "2次医療圏": "水戸", "病院名称": "水戸済生会総合病院", "住所": "茨城県水戸市双葉台３－３－１０", "災害拠点病院": "災害拠点病院", "救命救急センター": "救命救急", "DMAT指定医療機関": "DMAT", "被ばく医療機関": "NA", "fX(JGD2000)": 140.394600, "fY(JGD2000)": 36.398880 }, "geometry": { "type": "Point", "coordinates": [ 140.3946, 36.39888 ] } },
{ "type": "Feature", "properties": { "integer": 110, "都道府県コード": 8, "都道府県名": "茨城県", "2次医療圏": "水戸", "病院名称": "水戸赤十字病院", "住所": "茨城県水戸市三の丸３－１２－４８", "災害拠点病院": "災害拠点病院", "救命救急センター": "NA", "DMAT指定医療機関": "DMAT", "被ばく医療機関": "NA", "fX(JGD2000)": 140.485900, "fY(JGD2000)": 36.372390 }, "geometry": { "type": "Point", "coordinates": [ 140.4859, 36.37239 ] } },
{ "type": "Feature", "properties": { "integer": 111, "都道府県コード": 8, "都道府県名": "茨城県", "2次医療圏": "日立", "病院名称": "日製日立総合病院", "住所": "茨城県日立市城南町二丁目一番一号", "災害拠点病院": "災害拠点病院", "救命救急センター": "救命救急", "DMAT指定医療機関": "DMAT", "被ばく医療機関": "NA", "fX(JGD2000)": 140.645100, "fY(JGD2000)": 36.589800 }, "geometry": { "type": "Point", "coordinates": [ 140.6451, 36.5898 ] } },
{ "type": "Feature", "properties": { "integer": 112, "都道府県コード": 8, "都道府県名": "茨城県", "2次医療圏": "常陸太田・ひたちなか", "病院名称": "日製ひたちなか総合病院", "住所": "茨城県ひたちなか市石川町２０番１", "災害拠点病院": "災害拠点病院", "救命救急センター": "NA", "DMAT指定医療機関": "DMAT", "被ばく医療機関": "NA", "fX(JGD2000)": 140.529400, "fY(JGD2000)": 36.392020 }, "geometry": { "type": "Point", "coordinates": [ 140.5294, 36.39202 ] } },
{ "type": "Feature", "properties": { "integer": 113, "都道府県コード": 8, "都道府県名": "茨城県", "2次医療圏": "鹿行", "病院名称": "鹿島労災病院", "住所": "茨城県神栖市土合本町１－９１０８－２", "災害拠点病院": "災害拠点病院", "救命救急センター": "NA", "DMAT指定医療機関": "DMAT", "被ばく医療機関": "NA", "fX(JGD2000)": 140.784900, "fY(JGD2000)": 35.788640 }, "geometry": { "type": "Point", "coordinates": [ 140.7849, 35.78864 ] } },
{ "type": "Feature", "properties": { "integer": 114, "都道府県コード": 8, "都道府県名": "茨城県", "2次医療圏": "鹿行", "病院名称": "なめがた地域総合病院", "住所": "茨城県行方市井上藤井９８－８", "災害拠点病院": "災害拠点病院", "救命救急センター": "NA", "DMAT指定医療機関": "DMAT", "被ばく医療機関": "NA", "fX(JGD2000)": 140.457100, "fY(JGD2000)": 36.069730 }, "geometry": { "type": "Point", "coordinates": [ 140.4571, 36.06973 ] } },
{ "type": "Feature", "properties": { "integer": 115, "都道府県コード": 8, "都道府県名": "茨城県", "2次医療圏": "土浦", "病院名称": "土浦協同病院", "住所": "茨城県土浦市真鍋新町１１番７号", "災害拠点病院": "災害拠点病院", "救命救急センター": "救命救急", "DMAT指定医療機関": "DMAT", "被ばく医療機関": "NA", "fX(JGD2000)": 140.209500, "fY(JGD2000)": 36.089820 }, "geometry": { "type": "Point", "coordinates": [ 140.2095, 36.08982 ] } },
{ "type": "Feature", "properties": { "integer": 116, "都道府県コード": 8, "都道府県名": "茨城県", "2次医療圏": "つくば", "病院名称": "筑波大学附属病院", "住所": "茨城県つくば市天久保２－１－１", "災害拠点病院": "災害拠点病院", "救命救急センター": "NA", "DMAT指定医療機関": "DMAT", "被ばく医療機関": "NA", "fX(JGD2000)": 140.104100, "fY(JGD2000)": 36.098210 }, "geometry": { "type": "Point", "coordinates": [ 140.1041, 36.09821 ] } },
{ "type": "Feature", "properties": { "integer": 117, "都道府県コード": 8, "都道府県名": "茨城県", "2次医療圏": "つくば", "病院名称": "筑波メディカルセンター病院", "住所": "茨城県つくば市天久保１－３－１", "災害拠点病院": "災害拠点病院", "救命救急センター": "救命救急", "DMAT指定医療機関": "DMAT", "被ばく医療機関": "NA", "fX(JGD2000)": 140.106900, "fY(JGD2000)": 36.090950 }, "geometry": { "type": "Point", "coordinates": [ 140.1069, 36.09095 ] } },
{ "type": "Feature", "properties": { "integer": 118, "都道府県コード": 8, "都道府県名": "茨城県", "2次医療圏": "取手・竜ヶ崎", "病院名称": "ＪＡとりで総合医療センター", "住所": "茨城県取手市本郷２丁目１番１号", "災害拠点病院": "災害拠点病院", "救命救急センター": "NA", "DMAT指定医療機関": "DMAT", "被ばく医療機関": "NA", "fX(JGD2000)": 140.068800, "fY(JGD2000)": 35.911000 }, "geometry": { "type": "Point", "coordinates": [ 140.0688, 35.911 ] } },
{ "type": "Feature", "properties": { "integer": 119, "都道府県コード": 8, "都道府県名": "茨城県", "2次医療圏": "取手・竜ヶ崎", "病院名称": "東京医科大学茨城医療センター", "住所": "茨城県稲敷郡阿見町中央３－２０－１", "災害拠点病院": "NA", "救命救急センター": "NA", "DMAT指定医療機関": "DMAT", "被ばく医療機関": "NA", "fX(JGD2000)": 140.216700, "fY(JGD2000)": 36.036300 }, "geometry": { "type": "Point", "coordinates": [ 140.2167, 36.0363 ] } },
{ "type": "Feature", "properties": { "integer": 120, "都道府県コード": 8, "都道府県名": "茨城県", "2次医療圏": "取手・竜ヶ崎", "病院名称": "取手北相馬保健医療センター医師会病院", "住所": "茨城県取手市野々井１９２６", "災害拠点病院": "NA", "救命救急センター": "NA", "DMAT指定医療機関": "DMAT", "被ばく医療機関": "NA", "fX(JGD2000)": 140.025800, "fY(JGD2000)": 35.917870 }, "geometry": { "type": "Point", "coordinates": [ 140.0258, 35.91787 ] } },
{ "type": "Feature", "properties": { "integer": 121, "都道府県コード": 8, "都道府県名": "茨城県", "2次医療圏": "筑西・下妻", "病院名称": "県西総合病院", "住所": "茨城県桜川市鍬田６０４", "災害拠点病院": "災害拠点病院", "救命救急センター": "NA", "DMAT指定医療機関": "DMAT", "被ばく医療機関": "NA", "fX(JGD2000)": 140.101100, "fY(JGD2000)": 36.361810 }, "geometry": { "type": "Point", "coordinates": [ 140.1011, 36.36181 ] } },
{ "type": "Feature", "properties": { "integer": 122, "都道府県コード": 8, "都道府県名": "茨城県", "2次医療圏": "古河・坂東", "病院名称": "茨城西南医療センター病院", "住所": "茨城県猿島郡境町２１９０", "災害拠点病院": "災害拠点病院", "救命救急センター": "救命救急", "DMAT指定医療機関": "DMAT", "被ばく医療機関": "NA", "fX(JGD2000)": 139.796300, "fY(JGD2000)": 36.119150 }, "geometry": { "type": "Point", "coordinates": [ 139.7963, 36.11915 ] } },
{ "type": "Feature", "properties": { "integer": 123, "都道府県コード": 8, "都道府県名": "茨城県", "2次医療圏": "古河・坂東", "病院名称": "古河赤十字病院", "住所": "茨城県古河市下山町１１５０", "災害拠点病院": "災害拠点病院", "救命救急センター": "NA", "DMAT指定医療機関": "DMAT", "被ばく医療機関": "NA", "fX(JGD2000)": 139.723200, "fY(JGD2000)": 36.187950 }, "geometry": { "type": "Point", "coordinates": [ 139.7232, 36.18795 ] } },
{ "type": "Feature", "properties": { "integer": 124, "都道府県コード": 9, "都道府県名": "栃木県", "2次医療圏": "県東・央", "病院名称": "ＮＨＯ栃木医療センター", "住所": "栃木県宇都宮市中戸祭１－１０－３７", "災害拠点病院": "災害拠点病院", "救命救急センター": "NA", "DMAT指定医療機関": "DMAT", "被ばく医療機関": "NA", "fX(JGD2000)": 139.868100, "fY(JGD2000)": 36.578600 }, "geometry": { "type": "Point", "coordinates": [ 139.8681, 36.5786 ] } },
{ "type": "Feature", "properties": { "integer": 125, "都道府県コード": 9, "都道府県名": "栃木県", "2次医療圏": "県東・央", "病院名称": "済生会宇都宮病院", "住所": "栃木県宇都宮市竹林町９１１－１", "災害拠点病院": "災害拠点病院", "救命救急センター": "救命救急", "DMAT指定医療機関": "DMAT", "被ばく医療機関": "NA", "fX(JGD2000)": 139.897400, "fY(JGD2000)": 36.579100 }, "geometry": { "type": "Point", "coordinates": [ 139.8974, 36.5791 ] } },
{ "type": "Feature", "properties": { "integer": 126, "都道府県コード": 9, "都道府県名": "栃木県", "2次医療圏": "県東・央", "病院名称": "ＪＣＨＯ うつのみや病院", "住所": "栃木県宇都宮市南高砂町１１－１７", "災害拠点病院": "災害拠点病院", "救命救急センター": "NA", "DMAT指定医療機関": "DMAT", "被ばく医療機関": "NA", "fX(JGD2000)": 139.869900, "fY(JGD2000)": 36.481930 }, "geometry": { "type": "Point", "coordinates": [ 139.8699, 36.48193 ] } },
{ "type": "Feature", "properties": { "integer": 127, "都道府県コード": 9, "都道府県名": "栃木県", "2次医療圏": "県東・央", "病院名称": "栃木県立がんセンター", "住所": "栃木県宇都宮市陽南４－９－１３", "災害拠点病院": "NA", "救命救急センター": "NA", "DMAT指定医療機関": "DMAT", "被ばく医療機関": "NA", "fX(JGD2000)": 139.869200, "fY(JGD2000)": 36.533840 }, "geometry": { "type": "Point", "coordinates": [ 139.8692, 36.53384 ] } },
{ "type": "Feature", "properties": { "integer": 128, "都道府県コード": 9, "都道府県名": "栃木県", "2次医療圏": "県東・央", "病院名称": "芳賀赤十字病院", "住所": "栃木県真岡市台町２４６１", "災害拠点病院": "災害拠点病院", "救命救急センター": "NA", "DMAT指定医療機関": "DMAT", "被ばく医療機関": "NA", "fX(JGD2000)": 140.006500, "fY(JGD2000)": 36.437150 }, "geometry": { "type": "Point", "coordinates": [ 140.0065, 36.43715 ] } },
{ "type": "Feature", "properties": { "integer": 129, "都道府県コード": 9, "都道府県名": "栃木県", "2次医療圏": "県西", "病院名称": "上都賀総合病院", "住所": "栃木県鹿沼市下田町１－１０３３", "災害拠点病院": "災害拠点病院", "救命救急センター": "NA", "DMAT指定医療機関": "DMAT", "被ばく医療機関": "NA", "fX(JGD2000)": 139.750700, "fY(JGD2000)": 36.561630 }, "geometry": { "type": "Point", "coordinates": [ 139.7507, 36.56163 ] } },
{ "type": "Feature", "properties": { "integer": 130, "都道府県コード": 9, "都道府県名": "栃木県", "2次医療圏": "県西", "病院名称": "獨協医科大学日光医療センター", "住所": "栃木県日光市高徳６３２", "災害拠点病院": "NA", "救命救急センター": "NA", "DMAT指定医療機関": "DMAT", "被ばく医療機関": "NA", "fX(JGD2000)": 139.705500, "fY(JGD2000)": 36.784790 }, "geometry": { "type": "Point", "coordinates": [ 139.7055, 36.78479 ] } },
{ "type": "Feature", "properties": { "integer": 131, "都道府県コード": 9, "都道府県名": "栃木県", "2次医療圏": "県南", "病院名称": "自治医科大学附属病院", "住所": "栃木県下野市薬師寺３３１１－１", "災害拠点病院": "災害拠点病院", "救命救急センター": "救命救急", "DMAT指定医療機関": "DMAT", "被ばく医療機関": "NA", "fX(JGD2000)": 139.862400, "fY(JGD2000)": 36.398800 }, "geometry": { "type": "Point", "coordinates": [ 139.8624, 36.3988 ] } },
{ "type": "Feature", "properties": { "integer": 132, "都道府県コード": 9, "都道府県名": "栃木県", "2次医療圏": "県南", "病院名称": "獨協医科大学病院", "住所": "栃木県下都賀郡壬生町北小林８８０", "災害拠点病院": "災害拠点病院", "救命救急センター": "救命救急", "DMAT指定医療機関": "DMAT", "被ばく医療機関": "NA", "fX(JGD2000)": 139.826600, "fY(JGD2000)": 36.469920 }, "geometry": { "type": "Point", "coordinates": [ 139.8266, 36.46992 ] } },
{ "type": "Feature", "properties": { "integer": 133, "都道府県コード": 9, "都道府県名": "栃木県", "2次医療圏": "県北", "病院名称": "那須赤十字病院", "住所": "栃木県大田原市中田原１０８１－４", "災害拠点病院": "災害拠点病院", "救命救急センター": "救命救急", "DMAT指定医療機関": "DMAT", "被ばく医療機関": "NA", "fX(JGD2000)": 140.037400, "fY(JGD2000)": 36.880560 }, "geometry": { "type": "Point", "coordinates": [ 140.0374, 36.88056 ] } },
{ "type": "Feature", "properties": { "integer": 134, "都道府県コード": 9, "都道府県名": "栃木県", "2次医療圏": "両毛", "病院名称": "足利赤十字病院", "住所": "栃木県足利市五十部町２８４－１", "災害拠点病院": "災害拠点病院", "救命救急センター": "救命救急", "DMAT指定医療機関": "DMAT", "被ばく医療機関": "NA", "fX(JGD2000)": 139.424700, "fY(JGD2000)": 36.339220 }, "geometry": { "type": "Point", "coordinates": [ 139.4247, 36.33922 ] } },
{ "type": "Feature", "properties": { "integer": 135, "都道府県コード": 10, "都道府県名": "群馬県", "2次医療圏": "前橋医療圏", "病院名称": "群馬大学医学部附属病院", "住所": "群馬県前橋市昭和町３-３９-１５", "災害拠点病院": "災害拠点病院", "救命救急センター": "NA", "DMAT指定医療機関": "DMAT", "被ばく医療機関": "NA", "fX(JGD2000)": 139.062700, "fY(JGD2000)": 36.407830 }, "geometry": { "type": "Point", "coordinates": [ 139.0627, 36.40783 ] } },
{ "type": "Feature", "properties": { "integer": 136, "都道府県コード": 10, "都道府県名": "群馬県", "2次医療圏": "前橋医療圏", "病院名称": "ＪＣＨＯ群馬中央病院", "住所": "群馬県前橋市紅雲町１－７－１３", "災害拠点病院": "災害拠点病院", "救命救急センター": "NA", "DMAT指定医療機関": "DMAT", "被ばく医療機関": "NA", "fX(JGD2000)": 139.061100, "fY(JGD2000)": 36.385560 }, "geometry": { "type": "Point", "coordinates": [ 139.0611, 36.38556 ] } },
{ "type": "Feature", "properties": { "integer": 137, "都道府県コード": 10, "都道府県名": "群馬県", "2次医療圏": "前橋医療圏", "病院名称": "済生会前橋病院", "住所": "群馬県前橋市上新田町５６４－１", "災害拠点病院": "災害拠点病院", "救命救急センター": "NA", "DMAT指定医療機関": "DMAT", "被ばく医療機関": "NA", "fX(JGD2000)": 139.062100, "fY(JGD2000)": 36.368390 }, "geometry": { "type": "Point", "coordinates": [ 139.0621, 36.36839 ] } },
{ "type": "Feature", "properties": { "integer": 138, "都道府県コード": 10, "都道府県名": "群馬県", "2次医療圏": "前橋医療圏", "病院名称": "前橋赤十字病院", "住所": "群馬県前橋市朝日町３-２１-３６", "災害拠点病院": "災害拠点病院", "救命救急センター": "救命救急", "DMAT指定医療機関": "DMAT", "被ばく医療機関": "NA", "fX(JGD2000)": 139.086400, "fY(JGD2000)": 36.385410 }, "geometry": { "type": "Point", "coordinates": [ 139.0864, 36.38541 ] } },
{ "type": "Feature", "properties": { "integer": 139, "都道府県コード": 10, "都道府県名": "群馬県", "2次医療圏": "高崎・安中医療圏", "病院名称": "国立病院機構高崎総合医療センター", "住所": "群馬県高崎市高松町３６", "災害拠点病院": "災害拠点病院", "救命救急センター": "救命救急", "DMAT指定医療機関": "DMAT", "被ばく医療機関": "NA", "fX(JGD2000)": 139.002100, "fY(JGD2000)": 36.322470 }, "geometry": { "type": "Point", "coordinates": [ 139.0021, 36.32247 ] } },
{ "type": "Feature", "properties": { "integer": 140, "都道府県コード": 10, "都道府県名": "群馬県", "2次医療圏": "高崎・安中医療圏", "病院名称": "日高病院", "住所": "群馬県高崎市中尾町８８６", "災害拠点病院": "災害拠点病院", "救命救急センター": "NA", "DMAT指定医療機関": "DMAT", "被ばく医療機関": "NA", "fX(JGD2000)": 139.028700, "fY(JGD2000)": 36.364140 }, "geometry": { "type": "Point", "coordinates": [ 139.0287, 36.36414 ] } },
{ "type": "Feature", "properties": { "integer": 141, "都道府県コード": 10, "都道府県名": "群馬県", "2次医療圏": "桐生医療圏", "病院名称": "桐生厚生総合病院", "住所": "群馬県桐生市織姫町６-３", "災害拠点病院": "災害拠点病院", "救命救急センター": "NA", "DMAT指定医療機関": "DMAT", "被ばく医療機関": "NA", "fX(JGD2000)": 139.327500, "fY(JGD2000)": 36.405480 }, "geometry": { "type": "Point", "coordinates": [ 139.3275, 36.40548 ] } },
{ "type": "Feature", "properties": { "integer": 142, "都道府県コード": 10, "都道府県名": "群馬県", "2次医療圏": "太田・館林医療圏", "病院名称": "太田記念病院", "住所": "群馬県太田市大島町４５５－１", "災害拠点病院": "災害拠点病院", "救命救急センター": "救命救急", "DMAT指定医療機関": "DMAT", "被ばく医療機関": "NA", "fX(JGD2000)": 139.360500, "fY(JGD2000)": 36.298770 }, "geometry": { "type": "Point", "coordinates": [ 139.3605, 36.29877 ] } },
{ "type": "Feature", "properties": { "integer": 143, "都道府県コード": 10, "都道府県名": "群馬県", "2次医療圏": "太田・館林医療圏", "病院名称": "館林厚生病院", "住所": "群馬県館林市成島町２６２－１", "災害拠点病院": "災害拠点病院", "救命救急センター": "NA", "DMAT指定医療機関": "DMAT", "被ばく医療機関": "NA", "fX(JGD2000)": 139.519100, "fY(JGD2000)": 36.248710 }, "geometry": { "type": "Point", "coordinates": [ 139.5191, 36.24871 ] } },
{ "type": "Feature", "properties": { "integer": 144, "都道府県コード": 10, "都道府県名": "群馬県", "2次医療圏": "伊勢崎医療圏", "病院名称": "伊勢崎佐波医師会病院", "住所": "群馬県伊勢崎市下植木町４８１", "災害拠点病院": "災害拠点病院", "救命救急センター": "NA", "DMAT指定医療機関": "DMAT", "被ばく医療機関": "NA", "fX(JGD2000)": 139.209300, "fY(JGD2000)": 36.316520 }, "geometry": { "type": "Point", "coordinates": [ 139.2093, 36.31652 ] } },
{ "type": "Feature", "properties": { "integer": 145, "都道府県コード": 10, "都道府県名": "群馬県", "2次医療圏": "伊勢崎医療圏", "病院名称": "伊勢崎市民病院", "住所": "群馬県伊勢崎市連取本町１2-1", "災害拠点病院": "災害拠点病院", "救命救急センター": "NA", "DMAT指定医療機関": "DMAT", "被ばく医療機関": "NA", "fX(JGD2000)": 139.178300, "fY(JGD2000)": 36.322810 }, "geometry": { "type": "Point", "coordinates": [ 139.1783, 36.32281 ] } },
{ "type": "Feature", "properties": { "integer": 146, "都道府県コード": 10, "都道府県名": "群馬県", "2次医療圏": "沼田医療圏", "病院名称": "独立行政法人国立病院機構沼田病院", "住所": "群馬県沼田市上原町１５５１-４", "災害拠点病院": "災害拠点病院", "救命救急センター": "NA", "DMAT指定医療機関": "DMAT", "被ばく医療機関": "NA", "fX(JGD2000)": 139.061000, "fY(JGD2000)": 36.646010 }, "geometry": { "type": "Point", "coordinates": [ 139.061, 36.64601 ] } },
{ "type": "Feature", "properties": { "integer": 147, "都道府県コード": 10, "都道府県名": "群馬県", "2次医療圏": "沼田医療圏", "病院名称": "利根中央病院", "住所": "群馬県沼田市東原新町１８５５－１", "災害拠点病院": "災害拠点病院", "救命救急センター": "NA", "DMAT指定医療機関": "DMAT", "被ばく医療機関": "NA", "fX(JGD2000)": 139.055200, "fY(JGD2000)": 36.649260 }, "geometry": { "type": "Point", "coordinates": [ 139.0552, 36.64926 ] } },
{ "type": "Feature", "properties": { "integer": 148, "都道府県コード": 10, "都道府県名": "群馬県", "2次医療圏": "渋川医療圏", "病院名称": "渋川総合病院", "住所": "群馬県渋川市渋川１３８８-４", "災害拠点病院": "災害拠点病院", "救命救急センター": "NA", "DMAT指定医療機関": "DMAT", "被ばく医療機関": "NA", "fX(JGD2000)": 139.010000, "fY(JGD2000)": 36.491970 }, "geometry": { "type": "Point", "coordinates": [ 139.01, 36.49197 ] } },
{ "type": "Feature", "properties": { "integer": 149, "都道府県コード": 10, "都道府県名": "群馬県", "2次医療圏": "藤岡医療圏", "病院名称": "公立藤岡総合病院", "住所": "群馬県藤岡市藤岡９４２-１", "災害拠点病院": "災害拠点病院", "救命救急センター": "NA", "DMAT指定医療機関": "DMAT", "被ばく医療機関": "NA", "fX(JGD2000)": 139.076100, "fY(JGD2000)": 36.251760 }, "geometry": { "type": "Point", "coordinates": [ 139.0761, 36.25176 ] } },
{ "type": "Feature", "properties": { "integer": 150, "都道府県コード": 10, "都道府県名": "群馬県", "2次医療圏": "富岡医療圏", "病院名称": "公立富岡総合病院", "住所": "群馬県富岡市富岡２０７３-１", "災害拠点病院": "災害拠点病院", "救命救急センター": "NA", "DMAT指定医療機関": "DMAT", "被ばく医療機関": "NA", "fX(JGD2000)": 138.904100, "fY(JGD2000)": 36.263570 }, "geometry": { "type": "Point", "coordinates": [ 138.9041, 36.26357 ] } },
{ "type": "Feature", "properties": { "integer": 151, "都道府県コード": 10, "都道府県名": "群馬県", "2次医療圏": "吾妻医療圏", "病院名称": "原町赤十字病院", "住所": "群馬県吾妻郡東吾妻町大字原町６９８", "災害拠点病院": "災害拠点病院", "救命救急センター": "NA", "DMAT指定医療機関": "DMAT", "被ばく医療機関": "NA", "fX(JGD2000)": 138.825700, "fY(JGD2000)": 36.572240 }, "geometry": { "type": "Point", "coordinates": [ 138.8257, 36.57224 ] } },
{ "type": "Feature", "properties": { "integer": 152, "都道府県コード": 11, "都道府県名": "埼玉県", "2次医療圏": "さいたま市地区", "病院名称": "さいたま市立病院", "住所": "埼玉県さいたま市緑区三室２４６０", "災害拠点病院": "災害拠点病院", "救命救急センター": "NA", "DMAT指定医療機関": "DMAT", "被ばく医療機関": "NA", "fX(JGD2000)": 139.678800, "fY(JGD2000)": 35.890790 }, "geometry": { "type": "Point", "coordinates": [ 139.6788, 35.89079 ] } },
{ "type": "Feature", "properties": { "integer": 153, "都道府県コード": 11, "都道府県名": "埼玉県", "2次医療圏": "さいたま市地区", "病院名称": "さいたま赤十字病院", "住所": "埼玉県さいたま市中央区上落合８－３－３３", "災害拠点病院": "災害拠点病院", "救命救急センター": "救命救急", "DMAT指定医療機関": "DMAT", "被ばく医療機関": "NA", "fX(JGD2000)": 139.623200, "fY(JGD2000)": 35.899150 }, "geometry": { "type": "Point", "coordinates": [ 139.6232, 35.89915 ] } },
{ "type": "Feature", "properties": { "integer": 154, "都道府県コード": 11, "都道府県名": "埼玉県", "2次医療圏": "さいたま市地区", "病院名称": "自治医科大学附属さいたま医療センター", "住所": "埼玉県さいたま市大宮区天沼町１－８４７", "災害拠点病院": "災害拠点病院", "救命救急センター": "NA", "DMAT指定医療機関": "DMAT", "被ばく医療機関": "NA", "fX(JGD2000)": 139.645900, "fY(JGD2000)": 35.906280 }, "geometry": { "type": "Point", "coordinates": [ 139.6459, 35.90628 ] } },
{ "type": "Feature", "properties": { "integer": 155, "都道府県コード": 11, "都道府県名": "埼玉県", "2次医療圏": "中央地区", "病院名称": "北里大学メディカルセンター", "住所": "埼玉県北本市荒井６－１００", "災害拠点病院": "災害拠点病院", "救命救急センター": "NA", "DMAT指定医療機関": "DMAT", "被ばく医療機関": "NA", "fX(JGD2000)": 139.513800, "fY(JGD2000)": 36.012330 }, "geometry": { "type": "Point", "coordinates": [ 139.5138, 36.01233 ] } },
{ "type": "Feature", "properties": { "integer": 156, "都道府県コード": 11, "都道府県名": "埼玉県", "2次医療圏": "坂戸・飯能地区", "病院名称": "埼玉医科大学国際医療センター", "住所": "埼玉県日高市山根１３９７－１", "災害拠点病院": "災害拠点病院", "救命救急センター": "救命救急", "DMAT指定医療機関": "DMAT", "被ばく医療機関": "NA", "fX(JGD2000)": 139.325900, "fY(JGD2000)": 35.920920 }, "geometry": { "type": "Point", "coordinates": [ 139.3259, 35.92092 ] } },
{ "type": "Feature", "properties": { "integer": 157, "都道府県コード": 11, "都道府県名": "埼玉県", "2次医療圏": "川越地区", "病院名称": "埼玉医科大学総合医療センター", "住所": "埼玉県川越市鴨田１９８１", "災害拠点病院": "災害拠点病院", "救命救急センター": "救命救急", "DMAT指定医療機関": "DMAT", "被ばく医療機関": "NA", "fX(JGD2000)": 139.519600, "fY(JGD2000)": 35.934600 }, "geometry": { "type": "Point", "coordinates": [ 139.5196, 35.9346 ] } },
{ "type": "Feature", "properties": { "integer": 158, "都道府県コード": 11, "都道府県名": "埼玉県", "2次医療圏": "熊谷・深谷地区", "病院名称": "行田総合病院", "住所": "埼玉県行田市持田３７６", "災害拠点病院": "災害拠点病院", "救命救急センター": "NA", "DMAT指定医療機関": "DMAT", "被ばく医療機関": "NA", "fX(JGD2000)": 139.449100, "fY(JGD2000)": 36.125860 }, "geometry": { "type": "Point", "coordinates": [ 139.4491, 36.12586 ] } },
{ "type": "Feature", "properties": { "integer": 159, "都道府県コード": 11, "都道府県名": "埼玉県", "2次医療圏": "熊谷・深谷地区", "病院名称": "深谷赤十字病院", "住所": "埼玉県深谷市上柴町西５－８－１", "災害拠点病院": "災害拠点病院", "救命救急センター": "救命救急", "DMAT指定医療機関": "DMAT", "被ばく医療機関": "NA", "fX(JGD2000)": 139.295500, "fY(JGD2000)": 36.183220 }, "geometry": { "type": "Point", "coordinates": [ 139.2955, 36.18322 ] } },
{ "type": "Feature", "properties": { "integer": 160, "都道府県コード": 11, "都道府県名": "埼玉県", "2次医療圏": "熊谷・深谷地区", "病院名称": "深谷赤十字病院（救命）", "住所": "埼玉県深谷市上柴町西５丁目８－１", "災害拠点病院": "災害拠点病院", "救命救急センター": "救命救急", "DMAT指定医療機関": "DMAT", "被ばく医療機関": "NA", "fX(JGD2000)": 139.295500, "fY(JGD2000)": 36.183220 }, "geometry": { "type": "Point", "coordinates": [ 139.2955, 36.18322 ] } },
{ "type": "Feature", "properties": { "integer": 161, "都道府県コード": 11, "都道府県名": "埼玉県", "2次医療圏": "所沢地区", "病院名称": "防衛医科大学校病院", "住所": "埼玉県所沢市並木３－２", "災害拠点病院": "災害拠点病院", "救命救急センター": "救命救急", "DMAT指定医療機関": "DMAT", "被ばく医療機関": "NA", "fX(JGD2000)": 139.467800, "fY(JGD2000)": 35.802290 }, "geometry": { "type": "Point", "coordinates": [ 139.4678, 35.80229 ] } },
{ "type": "Feature", "properties": { "integer": 162, "都道府県コード": 11, "都道府県名": "埼玉県", "2次医療圏": "朝霞地区", "病院名称": "国病機構 埼玉病院", "住所": "埼玉県和光市諏訪２－１", "災害拠点病院": "災害拠点病院", "救命救急センター": "NA", "DMAT指定医療機関": "DMAT", "被ばく医療機関": "NA", "fX(JGD2000)": 139.618500, "fY(JGD2000)": 35.776000 }, "geometry": { "type": "Point", "coordinates": [ 139.6185, 35.776 ] } },
{ "type": "Feature", "properties": { "integer": 163, "都道府県コード": 11, "都道府県名": "埼玉県", "2次医療圏": "川口地区", "病院名称": "川口市立医療センター", "住所": "埼玉県川口市西新井宿１８０", "災害拠点病院": "災害拠点病院", "救命救急センター": "救命救急", "DMAT指定医療機関": "DMAT", "被ばく医療機関": "NA", "fX(JGD2000)": 139.730600, "fY(JGD2000)": 35.843910 }, "geometry": { "type": "Point", "coordinates": [ 139.7306, 35.84391 ] } },
{ "type": "Feature", "properties": { "integer": 164, "都道府県コード": 11, "都道府県名": "埼玉県", "2次医療圏": "川口地区", "病院名称": "済生会川口総合病院", "住所": "埼玉県川口市西川口５－１１－５", "災害拠点病院": "災害拠点病院", "救命救急センター": "NA", "DMAT指定医療機関": "DMAT", "被ばく医療機関": "NA", "fX(JGD2000)": 139.703100, "fY(JGD2000)": 35.809890 }, "geometry": { "type": "Point", "coordinates": [ 139.7031, 35.80989 ] } },
{ "type": "Feature", "properties": { "integer": 165, "都道府県コード": 11, "都道府県名": "埼玉県", "2次医療圏": "東部北地区", "病院名称": "久喜総合病院", "住所": "埼玉県久喜市上早見４１８－１", "災害拠点病院": "災害拠点病院", "救命救急センター": "NA", "DMAT指定医療機関": "DMAT", "被ばく医療機関": "NA", "fX(JGD2000)": 139.656300, "fY(JGD2000)": 36.070090 }, "geometry": { "type": "Point", "coordinates": [ 139.6563, 36.07009 ] } },
{ "type": "Feature", "properties": { "integer": 166, "都道府県コード": 11, "都道府県名": "埼玉県", "2次医療圏": "東部北地区", "病院名称": "済生会栗橋病院", "住所": "埼玉県久喜市小右衛門７１４－６", "災害拠点病院": "災害拠点病院", "救命救急センター": "NA", "DMAT指定医療機関": "DMAT", "被ばく医療機関": "NA", "fX(JGD2000)": 139.717000, "fY(JGD2000)": 36.114720 }, "geometry": { "type": "Point", "coordinates": [ 139.717, 36.11472 ] } },
{ "type": "Feature", "properties": { "integer": 167, "都道府県コード": 11, "都道府県名": "埼玉県", "2次医療圏": "東部南地区", "病院名称": "草加市立病院", "住所": "埼玉県草加市草加２－２１－１", "災害拠点病院": "災害拠点病院", "救命救急センター": "NA", "DMAT指定医療機関": "DMAT", "被ばく医療機関": "NA", "fX(JGD2000)": 139.796700, "fY(JGD2000)": 35.835420 }, "geometry": { "type": "Point", "coordinates": [ 139.7967, 35.83542 ] } },
{ "type": "Feature", "properties": { "integer": 168, "都道府県コード": 11, "都道府県名": "埼玉県", "2次医療圏": "東部南地区", "病院名称": "獨協医科大学越谷病院", "住所": "埼玉県越谷市南越谷２－１－５０", "災害拠点病院": "災害拠点病院", "救命救急センター": "救命救急", "DMAT指定医療機関": "DMAT", "被ばく医療機関": "NA", "fX(JGD2000)": 139.790000, "fY(JGD2000)": 35.878250 }, "geometry": { "type": "Point", "coordinates": [ 139.79, 35.87825 ] } },
{ "type": "Feature", "properties": { "integer": 169, "都道府県コード": 12, "都道府県名": "千葉県", "2次医療圏": "千葉", "病院名称": "国立病院機構千葉医療センター", "住所": "千葉県千葉市中央区椿森４－１－２", "災害拠点病院": "災害拠点病院", "救命救急センター": "NA", "DMAT指定医療機関": "DMAT", "被ばく医療機関": "NA", "fX(JGD2000)": 140.121300, "fY(JGD2000)": 35.622030 }, "geometry": { "type": "Point", "coordinates": [ 140.1213, 35.62203 ] } },
{ "type": "Feature", "properties": { "integer": 170, "都道府県コード": 12, "都道府県名": "千葉県", "2次医療圏": "千葉", "病院名称": "千葉県救急医療センター", "住所": "千葉県千葉市美浜区磯辺３－３２－１", "災害拠点病院": "災害拠点病院", "救命救急センター": "救命救急", "DMAT指定医療機関": "DMAT", "被ばく医療機関": "NA", "fX(JGD2000)": 140.052200, "fY(JGD2000)": 35.628500 }, "geometry": { "type": "Point", "coordinates": [ 140.0522, 35.6285 ] } },
{ "type": "Feature", "properties": { "integer": 171, "都道府県コード": 12, "都道府県名": "千葉県", "2次医療圏": "千葉", "病院名称": "千葉市立海浜病院", "住所": "千葉県千葉市美浜区磯辺３丁目３１番１号", "災害拠点病院": "災害拠点病院", "救命救急センター": "NA", "DMAT指定医療機関": "DMAT", "被ばく医療機関": "NA", "fX(JGD2000)": 140.051400, "fY(JGD2000)": 35.627820 }, "geometry": { "type": "Point", "coordinates": [ 140.0514, 35.62782 ] } },
{ "type": "Feature", "properties": { "integer": 172, "都道府県コード": 12, "都道府県名": "千葉県", "2次医療圏": "千葉", "病院名称": "千葉大学医学部附属病院", "住所": "千葉県千葉市中央区亥鼻１－８－１", "災害拠点病院": "災害拠点病院", "救命救急センター": "NA", "DMAT指定医療機関": "DMAT", "被ばく医療機関": "NA", "fX(JGD2000)": 140.131700, "fY(JGD2000)": 35.605220 }, "geometry": { "type": "Point", "coordinates": [ 140.1317, 35.60522 ] } },
{ "type": "Feature", "properties": { "integer": 173, "都道府県コード": 12, "都道府県名": "千葉県", "2次医療圏": "東葛南部", "病院名称": "順天堂大学医学部附属浦安病院", "住所": "千葉県浦安市富岡２－１－１", "災害拠点病院": "災害拠点病院", "救命救急センター": "救命救急", "DMAT指定医療機関": "DMAT", "被ばく医療機関": "NA", "fX(JGD2000)": 139.906900, "fY(JGD2000)": 35.645920 }, "geometry": { "type": "Point", "coordinates": [ 139.9069, 35.64592 ] } },
{ "type": "Feature", "properties": { "integer": 174, "都道府県コード": 12, "都道府県名": "千葉県", "2次医療圏": "東葛南部", "病院名称": "東京歯科大学市川総合病院", "住所": "千葉県市川市菅野５－１１－１３", "災害拠点病院": "災害拠点病院", "救命救急センター": "NA", "DMAT指定医療機関": "DMAT", "被ばく医療機関": "NA", "fX(JGD2000)": 139.921400, "fY(JGD2000)": 35.732570 }, "geometry": { "type": "Point", "coordinates": [ 139.9214, 35.73257 ] } },
{ "type": "Feature", "properties": { "integer": 175, "都道府県コード": 12, "都道府県名": "千葉県", "2次医療圏": "東葛南部", "病院名称": "東京女子医科大学附属八千代医療センター", "住所": "千葉県八千代市大和田新田４７７－９６", "災害拠点病院": "災害拠点病院", "救命救急センター": "NA", "DMAT指定医療機関": "DMAT", "被ばく医療機関": "NA", "fX(JGD2000)": 140.095800, "fY(JGD2000)": 35.726770 }, "geometry": { "type": "Point", "coordinates": [ 140.0958, 35.72677 ] } },
{ "type": "Feature", "properties": { "integer": 176, "都道府県コード": 12, "都道府県名": "千葉県", "2次医療圏": "東葛南部", "病院名称": "東京ベイ・浦安市川医療センター", "住所": "千葉県浦安市当代島３丁目４番３２号", "災害拠点病院": "災害拠点病院", "救命救急センター": "NA", "DMAT指定医療機関": "DMAT", "被ばく医療機関": "NA", "fX(JGD2000)": 139.893900, "fY(JGD2000)": 35.671290 }, "geometry": { "type": "Point", "coordinates": [ 139.8939, 35.67129 ] } },
{ "type": "Feature", "properties": { "integer": 177, "都道府県コード": 12, "都道府県名": "千葉県", "2次医療圏": "東葛南部", "病院名称": "船橋市立医療センター", "住所": "千葉県船橋市金杉１－２１－１", "災害拠点病院": "災害拠点病院", "救命救急センター": "救命救急", "DMAT指定医療機関": "DMAT", "被ばく医療機関": "NA", "fX(JGD2000)": 139.998400, "fY(JGD2000)": 35.723900 }, "geometry": { "type": "Point", "coordinates": [ 139.9984, 35.7239 ] } },
{ "type": "Feature", "properties": { "integer": 178, "都道府県コード": 12, "都道府県名": "千葉県", "2次医療圏": "東葛北部", "病院名称": "東京慈恵会医科大学附属柏病院", "住所": "千葉県柏市柏下１６３番地１", "災害拠点病院": "災害拠点病院", "救命救急センター": "救命救急", "DMAT指定医療機関": "DMAT", "被ばく医療機関": "NA", "fX(JGD2000)": 139.982900, "fY(JGD2000)": 35.869950 }, "geometry": { "type": "Point", "coordinates": [ 139.9829, 35.86995 ] } },
{ "type": "Feature", "properties": { "integer": 179, "都道府県コード": 12, "都道府県名": "千葉県", "2次医療圏": "東葛北部", "病院名称": "松戸市立病院", "住所": "千葉県松戸市上本郷４００５", "災害拠点病院": "災害拠点病院", "救命救急センター": "救命救急", "DMAT指定医療機関": "DMAT", "被ばく医療機関": "NA", "fX(JGD2000)": 139.918800, "fY(JGD2000)": 35.795800 }, "geometry": { "type": "Point", "coordinates": [ 139.9188, 35.7958 ] } },
{ "type": "Feature", "properties": { "integer": 180, "都道府県コード": 12, "都道府県名": "千葉県", "2次医療圏": "印旛", "病院名称": "成田赤十字病院", "住所": "千葉県成田市飯田町９０－１", "災害拠点病院": "災害拠点病院", "救命救急センター": "救命救急", "DMAT指定医療機関": "DMAT", "被ばく医療機関": "NA", "fX(JGD2000)": 140.303300, "fY(JGD2000)": 35.765010 }, "geometry": { "type": "Point", "coordinates": [ 140.3033, 35.76501 ] } },
{ "type": "Feature", "properties": { "integer": 181, "都道府県コード": 12, "都道府県名": "千葉県", "2次医療圏": "印旛", "病院名称": "日本医科大学千葉北総病院", "住所": "千葉県印西市鎌苅１７１５", "災害拠点病院": "災害拠点病院", "救命救急センター": "救命救急", "DMAT指定医療機関": "DMAT", "被ばく医療機関": "NA", "fX(JGD2000)": 140.195500, "fY(JGD2000)": 35.780780 }, "geometry": { "type": "Point", "coordinates": [ 140.1955, 35.78078 ] } },
{ "type": "Feature", "properties": { "integer": 182, "都道府県コード": 12, "都道府県名": "千葉県", "2次医療圏": "香取海匝", "病院名称": "旭中央病院", "住所": "千葉県旭市イ１３２６", "災害拠点病院": "災害拠点病院", "救命救急センター": "救命救急", "DMAT指定医療機関": "DMAT", "被ばく医療機関": "NA", "fX(JGD2000)": 140.662500, "fY(JGD2000)": 35.717430 }, "geometry": { "type": "Point", "coordinates": [ 140.6625, 35.71743 ] } },
{ "type": "Feature", "properties": { "integer": 183, "都道府県コード": 12, "都道府県名": "千葉県", "2次医療圏": "香取海匝", "病院名称": "千葉県立佐原病院", "住所": "千葉県香取市佐原イ２２８５", "災害拠点病院": "災害拠点病院", "救命救急センター": "NA", "DMAT指定医療機関": "DMAT", "被ばく医療機関": "NA", "fX(JGD2000)": 140.510000, "fY(JGD2000)": 35.886200 }, "geometry": { "type": "Point", "coordinates": [ 140.51, 35.8862 ] } },
{ "type": "Feature", "properties": { "integer": 184, "都道府県コード": 12, "都道府県名": "千葉県", "2次医療圏": "山武長生夷隅", "病院名称": "東千葉メディカルセンター", "住所": "千葉県東金市丘山台三丁目６番地２", "災害拠点病院": "災害拠点病院", "救命救急センター": "救命救急", "DMAT指定医療機関": "DMAT", "被ばく医療機関": "NA", "fX(JGD2000)": 140.307600, "fY(JGD2000)": 35.558080 }, "geometry": { "type": "Point", "coordinates": [ 140.3076, 35.55808 ] } },
{ "type": "Feature", "properties": { "integer": 185, "都道府県コード": 12, "都道府県名": "千葉県", "2次医療圏": "安房", "病院名称": "安房地域医療センター", "住所": "千葉県館山市山本１１５５", "災害拠点病院": "災害拠点病院", "救命救急センター": "NA", "DMAT指定医療機関": "DMAT", "被ばく医療機関": "NA", "fX(JGD2000)": 139.891600, "fY(JGD2000)": 34.999910 }, "geometry": { "type": "Point", "coordinates": [ 139.8916, 34.99991 ] } },
{ "type": "Feature", "properties": { "integer": 186, "都道府県コード": 12, "都道府県名": "千葉県", "2次医療圏": "安房", "病院名称": "亀田総合病院", "住所": "千葉県鴨川市東町９２９", "災害拠点病院": "災害拠点病院", "救命救急センター": "救命救急", "DMAT指定医療機関": "DMAT", "被ばく医療機関": "NA", "fX(JGD2000)": 140.126400, "fY(JGD2000)": 35.123410 }, "geometry": { "type": "Point", "coordinates": [ 140.1264, 35.12341 ] } },
{ "type": "Feature", "properties": { "integer": 187, "都道府県コード": 12, "都道府県名": "千葉県", "2次医療圏": "君津", "病院名称": "君津中央病院", "住所": "千葉県木更津市桜井１０１０", "災害拠点病院": "災害拠点病院", "救命救急センター": "救命救急", "DMAT指定医療機関": "DMAT", "被ばく医療機関": "NA", "fX(JGD2000)": 139.924700, "fY(JGD2000)": 35.360310 }, "geometry": { "type": "Point", "coordinates": [ 139.9247, 35.36031 ] } },
{ "type": "Feature", "properties": { "integer": 188, "都道府県コード": 12, "都道府県名": "千葉県", "2次医療圏": "市原", "病院名称": "千葉県循環器病センター", "住所": "千葉県市原市鶴舞５７５", "災害拠点病院": "災害拠点病院", "救命救急センター": "NA", "DMAT指定医療機関": "DMAT", "被ばく医療機関": "NA", "fX(JGD2000)": 140.185200, "fY(JGD2000)": 35.384780 }, "geometry": { "type": "Point", "coordinates": [ 140.1852, 35.38478 ] } },
{ "type": "Feature", "properties": { "integer": 189, "都道府県コード": 12, "都道府県名": "千葉県", "2次医療圏": "市原", "病院名称": "帝京大学ちば総合医療センター", "住所": "千葉県市原市姉崎３４２６－３", "災害拠点病院": "災害拠点病院", "救命救急センター": "NA", "DMAT指定医療機関": "DMAT", "被ばく医療機関": "NA", "fX(JGD2000)": 140.062200, "fY(JGD2000)": 35.465230 }, "geometry": { "type": "Point", "coordinates": [ 140.0622, 35.46523 ] } },
{ "type": "Feature", "properties": { "integer": 190, "都道府県コード": 13, "都道府県名": "東京都", "2次医療圏": "区中央部", "病院名称": "永寿総合病院", "住所": "東京都台東区東上野２－２３－１６", "災害拠点病院": "災害拠点病院", "救命救急センター": "NA", "DMAT指定医療機関": "DMAT", "被ばく医療機関": "NA", "fX(JGD2000)": 139.779700, "fY(JGD2000)": 35.709560 }, "geometry": { "type": "Point", "coordinates": [ 139.7797, 35.70956 ] } },
{ "type": "Feature", "properties": { "integer": 191, "都道府県コード": 13, "都道府県名": "東京都", "2次医療圏": "区中央部", "病院名称": "北里研究所病院", "住所": "東京都港区白金５－９－１", "災害拠点病院": "災害拠点病院", "救命救急センター": "NA", "DMAT指定医療機関": "DMAT", "被ばく医療機関": "NA", "fX(JGD2000)": 139.724700, "fY(JGD2000)": 35.646070 }, "geometry": { "type": "Point", "coordinates": [ 139.7247, 35.64607 ] } },
{ "type": "Feature", "properties": { "integer": 192, "都道府県コード": 13, "都道府県名": "東京都", "2次医療圏": "区中央部", "病院名称": "済生会中央病院", "住所": "東京都港区三田１－４－１７", "災害拠点病院": "災害拠点病院", "救命救急センター": "NA", "DMAT指定医療機関": "DMAT", "被ばく医療機関": "NA", "fX(JGD2000)": 139.742600, "fY(JGD2000)": 35.653250 }, "geometry": { "type": "Point", "coordinates": [ 139.7426, 35.65325 ] } },
{ "type": "Feature", "properties": { "integer": 193, "都道府県コード": 13, "都道府県名": "東京都", "2次医療圏": "区中央部", "病院名称": "順天堂医院", "住所": "東京都文京区本郷３－１－３", "災害拠点病院": "災害拠点病院", "救命救急センター": "NA", "DMAT指定医療機関": "DMAT", "被ばく医療機関": "NA", "fX(JGD2000)": 139.762600, "fY(JGD2000)": 35.702420 }, "geometry": { "type": "Point", "coordinates": [ 139.7626, 35.70242 ] } },
{ "type": "Feature", "properties": { "integer": 194, "都道府県コード": 13, "都道府県名": "東京都", "2次医療圏": "区中央部", "病院名称": "慈恵医大附属病院", "住所": "東京都港区西新橋３－１９－１８", "災害拠点病院": "災害拠点病院", "救命救急センター": "NA", "DMAT指定医療機関": "DMAT", "被ばく医療機関": "NA", "fX(JGD2000)": 139.751500, "fY(JGD2000)": 35.663690 }, "geometry": { "type": "Point", "coordinates": [ 139.7515, 35.66369 ] } },
{ "type": "Feature", "properties": { "integer": 195, "都道府県コード": 13, "都道府県名": "東京都", "2次医療圏": "区中央部", "病院名称": "聖路加国際病院", "住所": "東京都中央区明石町９－１", "災害拠点病院": "災害拠点病院", "救命救急センター": "救命救急", "DMAT指定医療機関": "DMAT", "被ばく医療機関": "NA", "fX(JGD2000)": 139.777100, "fY(JGD2000)": 35.667350 }, "geometry": { "type": "Point", "coordinates": [ 139.7771, 35.66735 ] } },
{ "type": "Feature", "properties": { "integer": 196, "都道府県コード": 13, "都道府県名": "東京都", "2次医療圏": "区中央部", "病院名称": "東京医科歯科大学病院", "住所": "東京都文京区湯島１－５－４５", "災害拠点病院": "災害拠点病院", "救命救急センター": "救命救急", "DMAT指定医療機関": "DMAT", "被ばく医療機関": "NA", "fX(JGD2000)": 139.764300, "fY(JGD2000)": 35.701590 }, "geometry": { "type": "Point", "coordinates": [ 139.7643, 35.70159 ] } },
{ "type": "Feature", "properties": { "integer": 197, "都道府県コード": 13, "都道府県名": "東京都", "2次医療圏": "区中央部", "病院名称": "東京大学病院", "住所": "東京都文京区本郷７－３－１", "災害拠点病院": "災害拠点病院", "救命救急センター": "NA", "DMAT指定医療機関": "DMAT", "被ばく医療機関": "NA", "fX(JGD2000)": 139.763300, "fY(JGD2000)": 35.711720 }, "geometry": { "type": "Point", "coordinates": [ 139.7633, 35.71172 ] } },
{ "type": "Feature", "properties": { "integer": 198, "都道府県コード": 13, "都道府県名": "東京都", "2次医療圏": "区中央部", "病院名称": "都立駒込病院", "住所": "東京都文京区本駒込３－１８－２２", "災害拠点病院": "災害拠点病院", "救命救急センター": "NA", "DMAT指定医療機関": "DMAT", "被ばく医療機関": "NA", "fX(JGD2000)": 139.756200, "fY(JGD2000)": 35.729980 }, "geometry": { "type": "Point", "coordinates": [ 139.7562, 35.72998 ] } },
{ "type": "Feature", "properties": { "integer": 199, "都道府県コード": 13, "都道府県名": "東京都", "2次医療圏": "区中央部", "病院名称": "日医大附属病院", "住所": "東京都文京区千駄木１－１－５", "災害拠点病院": "災害拠点病院", "救命救急センター": "救命救急", "DMAT指定医療機関": "DMAT", "被ばく医療機関": "NA", "fX(JGD2000)": 139.759100, "fY(JGD2000)": 35.721160 }, "geometry": { "type": "Point", "coordinates": [ 139.7591, 35.72116 ] } },
{ "type": "Feature", "properties": { "integer": 200, "都道府県コード": 13, "都道府県名": "東京都", "2次医療圏": "区中央部", "病院名称": "日本大学病院", "住所": "東京都千代田区神田駿河台１－６", "災害拠点病院": "災害拠点病院", "救命救急センター": "救命救急", "DMAT指定医療機関": "DMAT", "被ばく医療機関": "NA", "fX(JGD2000)": 139.762300, "fY(JGD2000)": 35.697240 }, "geometry": { "type": "Point", "coordinates": [ 139.7623, 35.69724 ] } },
{ "type": "Feature", "properties": { "integer": 201, "都道府県コード": 13, "都道府県名": "東京都", "2次医療圏": "区中央部", "病院名称": "三井記念病院", "住所": "東京都千代田区神田和泉町１", "災害拠点病院": "災害拠点病院", "救命救急センター": "NA", "DMAT指定医療機関": "DMAT", "被ばく医療機関": "NA", "fX(JGD2000)": 139.777200, "fY(JGD2000)": 35.700210 }, "geometry": { "type": "Point", "coordinates": [ 139.7772, 35.70021 ] } },
{ "type": "Feature", "properties": { "integer": 202, "都道府県コード": 13, "都道府県名": "東京都", "2次医療圏": "区南部", "病院名称": "池上総合病院", "住所": "東京都大田区池上６－１－１９", "災害拠点病院": "災害拠点病院", "救命救急センター": "NA", "DMAT指定医療機関": "NA", "被ばく医療機関": "NA", "fX(JGD2000)": 139.704500, "fY(JGD2000)": 35.572750 }, "geometry": { "type": "Point", "coordinates": [ 139.7045, 35.57275 ] } },
{ "type": "Feature", "properties": { "integer": 203, "都道府県コード": 13, "都道府県名": "東京都", "2次医療圏": "区南部", "病院名称": "ＮＴＴ東日本関東病院", "住所": "東京都品川区東五反田５－９－２２", "災害拠点病院": "災害拠点病院", "救命救急センター": "NA", "DMAT指定医療機関": "DMAT", "被ばく医療機関": "NA", "fX(JGD2000)": 139.725400, "fY(JGD2000)": 35.631020 }, "geometry": { "type": "Point", "coordinates": [ 139.7254, 35.63102 ] } },
{ "type": "Feature", "properties": { "integer": 204, "都道府県コード": 13, "都道府県名": "東京都", "2次医療圏": "区南部", "病院名称": "大森赤十字病院", "住所": "東京都大田区中央４－３０－１", "災害拠点病院": "災害拠点病院", "救命救急センター": "NA", "DMAT指定医療機関": "DMAT", "被ばく医療機関": "NA", "fX(JGD2000)": 139.718000, "fY(JGD2000)": 35.579400 }, "geometry": { "type": "Point", "coordinates": [ 139.718, 35.5794 ] } },
{ "type": "Feature", "properties": { "integer": 205, "都道府県コード": 13, "都道府県名": "東京都", "2次医療圏": "区南部", "病院名称": "公社荏原病院", "住所": "東京都大田区東雪谷４－５－１０", "災害拠点病院": "災害拠点病院", "救命救急センター": "NA", "DMAT指定医療機関": "DMAT", "被ばく医療機関": "NA", "fX(JGD2000)": 139.693300, "fY(JGD2000)": 35.594100 }, "geometry": { "type": "Point", "coordinates": [ 139.6933, 35.5941 ] } },
{ "type": "Feature", "properties": { "integer": 206, "都道府県コード": 13, "都道府県名": "東京都", "2次医療圏": "区南部", "病院名称": "昭和大学病院", "住所": "東京都品川区旗の台１－５－８", "災害拠点病院": "災害拠点病院", "救命救急センター": "救命救急", "DMAT指定医療機関": "DMAT", "被ばく医療機関": "NA", "fX(JGD2000)": 139.704200, "fY(JGD2000)": 35.608110 }, "geometry": { "type": "Point", "coordinates": [ 139.7042, 35.60811 ] } },
{ "type": "Feature", "properties": { "integer": 207, "都道府県コード": 13, "都道府県名": "東京都", "2次医療圏": "区南部", "病院名称": "東京労災病院", "住所": "東京都大田区大森南４－１３－２１", "災害拠点病院": "災害拠点病院", "救命救急センター": "NA", "DMAT指定医療機関": "NA", "被ばく医療機関": "NA", "fX(JGD2000)": 139.747000, "fY(JGD2000)": 35.565760 }, "geometry": { "type": "Point", "coordinates": [ 139.747, 35.56576 ] } },
{ "type": "Feature", "properties": { "integer": 208, "都道府県コード": 13, "都道府県名": "東京都", "2次医療圏": "区南部", "病院名称": "東邦大学大森病院", "住所": "東京都大田区大森西６－１１－１", "災害拠点病院": "災害拠点病院", "救命救急センター": "救命救急", "DMAT指定医療機関": "DMAT", "被ばく医療機関": "NA", "fX(JGD2000)": 139.724000, "fY(JGD2000)": 35.568730 }, "geometry": { "type": "Point", "coordinates": [ 139.724, 35.56873 ] } },
{ "type": "Feature", "properties": { "integer": 209, "都道府県コード": 13, "都道府県名": "東京都", "2次医療圏": "区西南部", "病院名称": "関東中央病院", "住所": "東京都世田谷区上用賀６－２５－１", "災害拠点病院": "災害拠点病院", "救命救急センター": "NA", "DMAT指定医療機関": "DMAT", "被ばく医療機関": "NA", "fX(JGD2000)": 139.625900, "fY(JGD2000)": 35.637440 }, "geometry": { "type": "Point", "coordinates": [ 139.6259, 35.63744 ] } },
{ "type": "Feature", "properties": { "integer": 210, "都道府県コード": 13, "都道府県名": "東京都", "2次医療圏": "区西南部", "病院名称": "国立成育医療センター", "住所": "東京都世田谷区大蔵２－１０－１", "災害拠点病院": "NA", "救命救急センター": "NA", "DMAT指定医療機関": "DMAT", "被ばく医療機関": "NA", "fX(JGD2000)": 139.612100, "fY(JGD2000)": 35.633510 }, "geometry": { "type": "Point", "coordinates": [ 139.6121, 35.63351 ] } },
{ "type": "Feature", "properties": { "integer": 211, "都道府県コード": 13, "都道府県名": "東京都", "2次医療圏": "区西南部", "病院名称": "至誠会第二病院", "住所": "東京都世田谷区上祖師谷５－１９－１", "災害拠点病院": "災害拠点病院", "救命救急センター": "NA", "DMAT指定医療機関": "DMAT", "被ばく医療機関": "NA", "fX(JGD2000)": 139.591300, "fY(JGD2000)": 35.656460 }, "geometry": { "type": "Point", "coordinates": [ 139.5913, 35.65646 ] } },
{ "type": "Feature", "properties": { "integer": 212, "都道府県コード": 13, "都道府県名": "東京都", "2次医療圏": "区西南部", "病院名称": "東京医療センター", "住所": "東京都目黒区東が丘２－５－１", "災害拠点病院": "災害拠点病院", "救命救急センター": "救命救急", "DMAT指定医療機関": "DMAT", "被ばく医療機関": "NA", "fX(JGD2000)": 139.666300, "fY(JGD2000)": 35.626910 }, "geometry": { "type": "Point", "coordinates": [ 139.6663, 35.62691 ] } },
{ "type": "Feature", "properties": { "integer": 213, "都道府県コード": 13, "都道府県名": "東京都", "2次医療圏": "区西南部", "病院名称": "都立広尾病院", "住所": "東京都渋谷区恵比寿２－３４－１０", "災害拠点病院": "災害拠点病院", "救命救急センター": "救命救急", "DMAT指定医療機関": "DMAT", "被ばく医療機関": "NA", "fX(JGD2000)": 139.721500, "fY(JGD2000)": 35.647040 }, "geometry": { "type": "Point", "coordinates": [ 139.7215, 35.64704 ] } },
{ "type": "Feature", "properties": { "integer": 214, "都道府県コード": 13, "都道府県名": "東京都", "2次医療圏": "区西南部", "病院名称": "都立松沢病院", "住所": "東京都世田谷区上北沢２－１－１", "災害拠点病院": "災害拠点病院", "救命救急センター": "NA", "DMAT指定医療機関": "DMAT", "被ばく医療機関": "NA", "fX(JGD2000)": 139.619900, "fY(JGD2000)": 35.666290 }, "geometry": { "type": "Point", "coordinates": [ 139.6199, 35.66629 ] } },
{ "type": "Feature", "properties": { "integer": 215, "都道府県コード": 13, "都道府県名": "東京都", "2次医療圏": "区西南部", "病院名称": "日赤医療センター", "住所": "東京都渋谷区広尾４－１－２２", "災害拠点病院": "災害拠点病院", "救命救急センター": "救命救急", "DMAT指定医療機関": "DMAT", "被ばく医療機関": "NA", "fX(JGD2000)": 139.720400, "fY(JGD2000)": 35.654430 }, "geometry": { "type": "Point", "coordinates": [ 139.7204, 35.65443 ] } },
{ "type": "Feature", "properties": { "integer": 216, "都道府県コード": 13, "都道府県名": "東京都", "2次医療圏": "区西部", "病院名称": "荻窪病院", "住所": "東京都杉並区今川３－１－２４", "災害拠点病院": "災害拠点病院", "救命救急センター": "NA", "DMAT指定医療機関": "DMAT", "被ばく医療機関": "NA", "fX(JGD2000)": 139.607700, "fY(JGD2000)": 35.715410 }, "geometry": { "type": "Point", "coordinates": [ 139.6077, 35.71541 ] } },
{ "type": "Feature", "properties": { "integer": 217, "都道府県コード": 13, "都道府県名": "東京都", "2次医療圏": "区西部", "病院名称": "慶応大学病院", "住所": "東京都新宿区信濃町３５", "災害拠点病院": "災害拠点病院", "救命救急センター": "NA", "DMAT指定医療機関": "DMAT", "被ばく医療機関": "NA", "fX(JGD2000)": 139.718000, "fY(JGD2000)": 35.682640 }, "geometry": { "type": "Point", "coordinates": [ 139.718, 35.68264 ] } },
{ "type": "Feature", "properties": { "integer": 218, "都道府県コード": 13, "都道府県名": "東京都", "2次医療圏": "区西部", "病院名称": "公社大久保病院", "住所": "東京都新宿区歌舞伎町２－４４－１", "災害拠点病院": "災害拠点病院", "救命救急センター": "NA", "DMAT指定医療機関": "DMAT", "被ばく医療機関": "NA", "fX(JGD2000)": 139.701300, "fY(JGD2000)": 35.696650 }, "geometry": { "type": "Point", "coordinates": [ 139.7013, 35.69665 ] } },
{ "type": "Feature", "properties": { "integer": 219, "都道府県コード": 13, "都道府県名": "東京都", "2次医療圏": "区西部", "病院名称": "佼成病院", "住所": "東京都杉並区和田２－２５－１", "災害拠点病院": "災害拠点病院", "救命救急センター": "NA", "DMAT指定医療機関": "NA", "被ばく医療機関": "NA", "fX(JGD2000)": 139.656100, "fY(JGD2000)": 35.689940 }, "geometry": { "type": "Point", "coordinates": [ 139.6561, 35.68994 ] } },
{ "type": "Feature", "properties": { "integer": 220, "都道府県コード": 13, "都道府県名": "東京都", "2次医療圏": "区西部", "病院名称": "国立国際医療研究センター病院", "住所": "東京都新宿区戸山１－２１－１", "災害拠点病院": "災害拠点病院", "救命救急センター": "NA", "DMAT指定医療機関": "DMAT", "被ばく医療機関": "NA", "fX(JGD2000)": 139.716300, "fY(JGD2000)": 35.702920 }, "geometry": { "type": "Point", "coordinates": [ 139.7163, 35.70292 ] } },
{ "type": "Feature", "properties": { "integer": 221, "都道府県コード": 13, "都道府県名": "東京都", "2次医療圏": "区西部", "病院名称": "東京医科大学病院", "住所": "東京都新宿区西新宿６－７－１", "災害拠点病院": "災害拠点病院", "救命救急センター": "救命救急", "DMAT指定医療機関": "DMAT", "被ばく医療機関": "NA", "fX(JGD2000)": 139.691900, "fY(JGD2000)": 35.693720 }, "geometry": { "type": "Point", "coordinates": [ 139.6919, 35.69372 ] } },
{ "type": "Feature", "properties": { "integer": 222, "都道府県コード": 13, "都道府県名": "東京都", "2次医療圏": "区西部", "病院名称": "東京警察病院", "住所": "東京都中野区中野４－２２－１", "災害拠点病院": "災害拠点病院", "救命救急センター": "NA", "DMAT指定医療機関": "DMAT", "被ばく医療機関": "NA", "fX(JGD2000)": 139.659200, "fY(JGD2000)": 35.708900 }, "geometry": { "type": "Point", "coordinates": [ 139.6592, 35.7089 ] } },
{ "type": "Feature", "properties": { "integer": 223, "都道府県コード": 13, "都道府県名": "東京都", "2次医療圏": "区西部", "病院名称": "東京新宿メディカルセンター", "住所": "東京都新宿区津久戸町５－１", "災害拠点病院": "災害拠点病院", "救命救急センター": "NA", "DMAT指定医療機関": "NA", "被ばく医療機関": "NA", "fX(JGD2000)": 139.741500, "fY(JGD2000)": 35.703900 }, "geometry": { "type": "Point", "coordinates": [ 139.7415, 35.7039 ] } },
{ "type": "Feature", "properties": { "integer": 224, "都道府県コード": 13, "都道府県名": "東京都", "2次医療圏": "区西部", "病院名称": "東京女子医大病院", "住所": "東京都新宿区河田町８－１", "災害拠点病院": "災害拠点病院", "救命救急センター": "救命救急", "DMAT指定医療機関": "DMAT", "被ばく医療機関": "NA", "fX(JGD2000)": 139.719600, "fY(JGD2000)": 35.697170 }, "geometry": { "type": "Point", "coordinates": [ 139.7196, 35.69717 ] } },
{ "type": "Feature", "properties": { "integer": 225, "都道府県コード": 13, "都道府県名": "東京都", "2次医療圏": "区西部", "病院名称": "東京山手メディカルセンター", "住所": "東京都新宿区百人町３－２２－１", "災害拠点病院": "災害拠点病院", "救命救急センター": "NA", "DMAT指定医療機関": "DMAT", "被ばく医療機関": "NA", "fX(JGD2000)": 139.698500, "fY(JGD2000)": 35.704830 }, "geometry": { "type": "Point", "coordinates": [ 139.6985, 35.70483 ] } },
{ "type": "Feature", "properties": { "integer": 226, "都道府県コード": 13, "都道府県名": "東京都", "2次医療圏": "区西部", "病院名称": "中野総合病院", "住所": "東京都中野区中央４－５９－１６", "災害拠点病院": "災害拠点病院", "救命救急センター": "NA", "DMAT指定医療機関": "DMAT", "被ばく医療機関": "NA", "fX(JGD2000)": 139.666800, "fY(JGD2000)": 35.702470 }, "geometry": { "type": "Point", "coordinates": [ 139.6668, 35.70247 ] } },
{ "type": "Feature", "properties": { "integer": 227, "都道府県コード": 13, "都道府県名": "東京都", "2次医療圏": "区西北部", "病院名称": "公社豊島病院", "住所": "東京都板橋区栄町３３－１", "災害拠点病院": "災害拠点病院", "救命救急センター": "NA", "DMAT指定医療機関": "DMAT", "被ばく医療機関": "NA", "fX(JGD2000)": 139.700500, "fY(JGD2000)": 35.752880 }, "geometry": { "type": "Point", "coordinates": [ 139.7005, 35.75288 ] } },
{ "type": "Feature", "properties": { "integer": 228, "都道府県コード": 13, "都道府県名": "東京都", "2次医療圏": "区西北部", "病院名称": "順天堂練馬病院", "住所": "東京都練馬区高野台３－１－１０", "災害拠点病院": "災害拠点病院", "救命救急センター": "NA", "DMAT指定医療機関": "DMAT", "被ばく医療機関": "NA", "fX(JGD2000)": 139.615000, "fY(JGD2000)": 35.742170 }, "geometry": { "type": "Point", "coordinates": [ 139.615, 35.74217 ] } },
{ "type": "Feature", "properties": { "integer": 229, "都道府県コード": 13, "都道府県名": "東京都", "2次医療圏": "区西北部", "病院名称": "帝京大学附属病院", "住所": "東京都板橋区加賀２－１１－１", "災害拠点病院": "災害拠点病院", "救命救急センター": "救命救急", "DMAT指定医療機関": "DMAT", "被ばく医療機関": "NA", "fX(JGD2000)": 139.714500, "fY(JGD2000)": 35.759280 }, "geometry": { "type": "Point", "coordinates": [ 139.7145, 35.75928 ] } },
{ "type": "Feature", "properties": { "integer": 230, "都道府県コード": 13, "都道府県名": "東京都", "2次医療圏": "区西北部", "病院名称": "東京北医療センター", "住所": "東京都北区赤羽台４－１７－５６", "災害拠点病院": "災害拠点病院", "救命救急センター": "NA", "DMAT指定医療機関": "DMAT", "被ばく医療機関": "NA", "fX(JGD2000)": 139.711000, "fY(JGD2000)": 35.783750 }, "geometry": { "type": "Point", "coordinates": [ 139.711, 35.78375 ] } },
{ "type": "Feature", "properties": { "integer": 231, "都道府県コード": 13, "都道府県名": "東京都", "2次医療圏": "区西北部", "病院名称": "東京都健康長寿医療センター", "住所": "東京都板橋区栄町３５－２", "災害拠点病院": "災害拠点病院", "救命救急センター": "NA", "DMAT指定医療機関": "DMAT", "被ばく医療機関": "NA", "fX(JGD2000)": 139.703100, "fY(JGD2000)": 35.751080 }, "geometry": { "type": "Point", "coordinates": [ 139.7031, 35.75108 ] } },
{ "type": "Feature", "properties": { "integer": 232, "都道府県コード": 13, "都道府県名": "東京都", "2次医療圏": "区西北部", "病院名称": "都立大塚病院", "住所": "東京都豊島区南大塚２－８－１", "災害拠点病院": "災害拠点病院", "救命救急センター": "NA", "DMAT指定医療機関": "DMAT", "被ばく医療機関": "NA", "fX(JGD2000)": 139.731600, "fY(JGD2000)": 35.724410 }, "geometry": { "type": "Point", "coordinates": [ 139.7316, 35.72441 ] } },
{ "type": "Feature", "properties": { "integer": 233, "都道府県コード": 13, "都道府県名": "東京都", "2次医療圏": "区西北部", "病院名称": "日大附属板橋病院", "住所": "東京都板橋区大谷口上町３０－１", "災害拠点病院": "災害拠点病院", "救命救急センター": "救命救急", "DMAT指定医療機関": "DMAT", "被ばく医療機関": "NA", "fX(JGD2000)": 139.691200, "fY(JGD2000)": 35.749300 }, "geometry": { "type": "Point", "coordinates": [ 139.6912, 35.7493 ] } },
{ "type": "Feature", "properties": { "integer": 234, "都道府県コード": 13, "都道府県名": "東京都", "2次医療圏": "区西北部", "病院名称": "練馬光が丘病院", "住所": "東京都練馬区光が丘２－１１－１", "災害拠点病院": "災害拠点病院", "救命救急センター": "NA", "DMAT指定医療機関": "DMAT", "被ばく医療機関": "NA", "fX(JGD2000)": 139.629800, "fY(JGD2000)": 35.762020 }, "geometry": { "type": "Point", "coordinates": [ 139.6298, 35.76202 ] } },
{ "type": "Feature", "properties": { "integer": 235, "都道府県コード": 13, "都道府県名": "東京都", "2次医療圏": "区東北部", "病院名称": "女子医大東医療センター", "住所": "東京都荒川区西尾久２－１－１０", "災害拠点病院": "災害拠点病院", "救命救急センター": "救命救急", "DMAT指定医療機関": "DMAT", "被ばく医療機関": "NA", "fX(JGD2000)": 139.765400, "fY(JGD2000)": 35.748140 }, "geometry": { "type": "Point", "coordinates": [ 139.7654, 35.74814 ] } },
{ "type": "Feature", "properties": { "integer": 236, "都道府県コード": 13, "都道府県名": "東京都", "2次医療圏": "区東北部", "病院名称": "慈恵医大葛飾医療センター", "住所": "東京都葛飾区青戸６－４１－２", "災害拠点病院": "災害拠点病院", "救命救急センター": "NA", "DMAT指定医療機関": "DMAT", "被ばく医療機関": "NA", "fX(JGD2000)": 139.858100, "fY(JGD2000)": 35.753170 }, "geometry": { "type": "Point", "coordinates": [ 139.8581, 35.75317 ] } },
{ "type": "Feature", "properties": { "integer": 237, "都道府県コード": 13, "都道府県名": "東京都", "2次医療圏": "区東北部", "病院名称": "苑田第一病院", "住所": "東京都足立区竹の塚４－１－１２", "災害拠点病院": "災害拠点病院", "救命救急センター": "NA", "DMAT指定医療機関": "DMAT", "被ばく医療機関": "NA", "fX(JGD2000)": 139.802500, "fY(JGD2000)": 35.792750 }, "geometry": { "type": "Point", "coordinates": [ 139.8025, 35.79275 ] } },
{ "type": "Feature", "properties": { "integer": 238, "都道府県コード": 13, "都道府県名": "東京都", "2次医療圏": "区東北部", "病院名称": "東部地域病院", "住所": "東京都葛飾区亀有５－１４－１", "災害拠点病院": "災害拠点病院", "救命救急センター": "NA", "DMAT指定医療機関": "DMAT", "被ばく医療機関": "NA", "fX(JGD2000)": 139.844700, "fY(JGD2000)": 35.766440 }, "geometry": { "type": "Point", "coordinates": [ 139.8447, 35.76644 ] } },
{ "type": "Feature", "properties": { "integer": 239, "都道府県コード": 13, "都道府県名": "東京都", "2次医療圏": "区東北部", "病院名称": "西新井病院", "住所": "東京都足立区西新井本町１－１２－１２", "災害拠点病院": "災害拠点病院", "救命救急センター": "NA", "DMAT指定医療機関": "DMAT", "被ばく医療機関": "NA", "fX(JGD2000)": 139.781200, "fY(JGD2000)": 35.776240 }, "geometry": { "type": "Point", "coordinates": [ 139.7812, 35.77624 ] } },
{ "type": "Feature", "properties": { "integer": 240, "都道府県コード": 13, "都道府県名": "東京都", "2次医療圏": "区東北部", "病院名称": "博慈会記念総合病院", "住所": "東京都足立区鹿浜５－１１－１", "災害拠点病院": "災害拠点病院", "救命救急センター": "NA", "DMAT指定医療機関": "DMAT", "被ばく医療機関": "NA", "fX(JGD2000)": 139.749500, "fY(JGD2000)": 35.785100 }, "geometry": { "type": "Point", "coordinates": [ 139.7495, 35.7851 ] } },
{ "type": "Feature", "properties": { "integer": 241, "都道府県コード": 13, "都道府県名": "東京都", "2次医療圏": "区東北部", "病院名称": "平成立石病院", "住所": "東京都葛飾区立石５－１－９", "災害拠点病院": "災害拠点病院", "救命救急センター": "NA", "DMAT指定医療機関": "NA", "被ばく医療機関": "NA", "fX(JGD2000)": 139.841800, "fY(JGD2000)": 35.741950 }, "geometry": { "type": "Point", "coordinates": [ 139.8418, 35.74195 ] } },
{ "type": "Feature", "properties": { "integer": 242, "都道府県コード": 13, "都道府県名": "東京都", "2次医療圏": "区東部", "病院名称": "あそか病院", "住所": "東京都江東区住吉１－１８－１", "災害拠点病院": "災害拠点病院", "救命救急センター": "NA", "DMAT指定医療機関": "NA", "被ばく医療機関": "NA", "fX(JGD2000)": 139.812000, "fY(JGD2000)": 35.689980 }, "geometry": { "type": "Point", "coordinates": [ 139.812, 35.68998 ] } },
{ "type": "Feature", "properties": { "integer": 243, "都道府県コード": 13, "都道府県名": "東京都", "2次医療圏": "区東部", "病院名称": "江戸川病院", "住所": "東京都江戸川区東小岩２－２４－１８", "災害拠点病院": "災害拠点病院", "救命救急センター": "NA", "DMAT指定医療機関": "DMAT", "被ばく医療機関": "NA", "fX(JGD2000)": 139.893200, "fY(JGD2000)": 35.728020 }, "geometry": { "type": "Point", "coordinates": [ 139.8932, 35.72802 ] } },
{ "type": "Feature", "properties": { "integer": 244, "都道府県コード": 13, "都道府県名": "東京都", "2次医療圏": "区東部", "病院名称": "がん研究会有明病院", "住所": "東京都江東区有明３－８－３１", "災害拠点病院": "災害拠点病院", "救命救急センター": "NA", "DMAT指定医療機関": "DMAT", "被ばく医療機関": "NA", "fX(JGD2000)": 139.795300, "fY(JGD2000)": 35.636150 }, "geometry": { "type": "Point", "coordinates": [ 139.7953, 35.63615 ] } },
{ "type": "Feature", "properties": { "integer": 245, "都道府県コード": 13, "都道府県名": "東京都", "2次医療圏": "区東部", "病院名称": "江東高齢者医療センター", "住所": "東京都江東区新砂３－３－２０", "災害拠点病院": "災害拠点病院", "救命救急センター": "NA", "DMAT指定医療機関": "DMAT", "被ばく医療機関": "NA", "fX(JGD2000)": 139.832600, "fY(JGD2000)": 35.665840 }, "geometry": { "type": "Point", "coordinates": [ 139.8326, 35.66584 ] } },
{ "type": "Feature", "properties": { "integer": 246, "都道府県コード": 13, "都道府県名": "東京都", "2次医療圏": "区東部", "病院名称": "江東病院", "住所": "東京都江東区大島６－８－５", "災害拠点病院": "災害拠点病院", "救命救急センター": "NA", "DMAT指定医療機関": "DMAT", "被ばく医療機関": "NA", "fX(JGD2000)": 139.834500, "fY(JGD2000)": 35.690240 }, "geometry": { "type": "Point", "coordinates": [ 139.8345, 35.69024 ] } },
{ "type": "Feature", "properties": { "integer": 247, "都道府県コード": 13, "都道府県名": "東京都", "2次医療圏": "区東部", "病院名称": "昭和大学江東豊洲病院", "住所": "東京都江東区豊洲５－１－３８", "災害拠点病院": "災害拠点病院", "救命救急センター": "NA", "DMAT指定医療機関": "NA", "被ばく医療機関": "NA", "fX(JGD2000)": 139.795500, "fY(JGD2000)": 35.649700 }, "geometry": { "type": "Point", "coordinates": [ 139.7955, 35.6497 ] } },
{ "type": "Feature", "properties": { "integer": 248, "都道府県コード": 13, "都道府県名": "東京都", "2次医療圏": "区東部", "病院名称": "白鬚橋病院", "住所": "東京都墨田区東向島４－２－１０", "災害拠点病院": "災害拠点病院", "救命救急センター": "NA", "DMAT指定医療機関": "DMAT", "被ばく医療機関": "NA", "fX(JGD2000)": 139.814200, "fY(JGD2000)": 35.727750 }, "geometry": { "type": "Point", "coordinates": [ 139.8142, 35.72775 ] } },
{ "type": "Feature", "properties": { "integer": 249, "都道府県コード": 13, "都道府県名": "東京都", "2次医療圏": "区東部", "病院名称": "東京臨海病院", "住所": "東京都江戸川区臨海町１－４－２", "災害拠点病院": "災害拠点病院", "救命救急センター": "NA", "DMAT指定医療機関": "DMAT", "被ばく医療機関": "NA", "fX(JGD2000)": 139.850700, "fY(JGD2000)": 35.652620 }, "geometry": { "type": "Point", "coordinates": [ 139.8507, 35.65262 ] } },
{ "type": "Feature", "properties": { "integer": 250, "都道府県コード": 13, "都道府県名": "東京都", "2次医療圏": "区東部", "病院名称": "都立墨東病院", "住所": "東京都墨田区江東橋４－２３－１５", "災害拠点病院": "災害拠点病院", "救命救急センター": "救命救急", "DMAT指定医療機関": "DMAT", "被ばく医療機関": "NA", "fX(JGD2000)": 139.818700, "fY(JGD2000)": 35.695130 }, "geometry": { "type": "Point", "coordinates": [ 139.8187, 35.69513 ] } },
{ "type": "Feature", "properties": { "integer": 251, "都道府県コード": 13, "都道府県名": "東京都", "2次医療圏": "西多摩", "病院名称": "青梅市立総合病院", "住所": "東京都青梅市東青梅４－１６－５", "災害拠点病院": "災害拠点病院", "救命救急センター": "救命救急", "DMAT指定医療機関": "DMAT", "被ばく医療機関": "NA", "fX(JGD2000)": 139.281100, "fY(JGD2000)": 35.782600 }, "geometry": { "type": "Point", "coordinates": [ 139.2811, 35.7826 ] } },
{ "type": "Feature", "properties": { "integer": 252, "都道府県コード": 13, "都道府県名": "東京都", "2次医療圏": "西多摩", "病院名称": "公立阿伎留医療センター", "住所": "東京都あきる野市引田７８－１", "災害拠点病院": "災害拠点病院", "救命救急センター": "NA", "DMAT指定医療機関": "DMAT", "被ばく医療機関": "NA", "fX(JGD2000)": 139.272400, "fY(JGD2000)": 35.731540 }, "geometry": { "type": "Point", "coordinates": [ 139.2724, 35.73154 ] } },
{ "type": "Feature", "properties": { "integer": 253, "都道府県コード": 13, "都道府県名": "東京都", "2次医療圏": "西多摩", "病院名称": "公立福生病院", "住所": "東京都福生市加美平１－６－１", "災害拠点病院": "災害拠点病院", "救命救急センター": "NA", "DMAT指定医療機関": "DMAT", "被ばく医療機関": "NA", "fX(JGD2000)": 139.326600, "fY(JGD2000)": 35.747020 }, "geometry": { "type": "Point", "coordinates": [ 139.3266, 35.74702 ] } },
{ "type": "Feature", "properties": { "integer": 254, "都道府県コード": 13, "都道府県名": "東京都", "2次医療圏": "南多摩", "病院名称": "稲城市立病院", "住所": "東京都稲城市大丸１１７１", "災害拠点病院": "災害拠点病院", "救命救急センター": "NA", "DMAT指定医療機関": "DMAT", "被ばく医療機関": "NA", "fX(JGD2000)": 139.473100, "fY(JGD2000)": 35.642800 }, "geometry": { "type": "Point", "coordinates": [ 139.4731, 35.6428 ] } },
{ "type": "Feature", "properties": { "integer": 255, "都道府県コード": 13, "都道府県名": "東京都", "2次医療圏": "南多摩", "病院名称": "多摩南部地域病院", "住所": "東京都多摩市中沢２－１－２", "災害拠点病院": "災害拠点病院", "救命救急センター": "NA", "DMAT指定医療機関": "DMAT", "被ばく医療機関": "NA", "fX(JGD2000)": 139.414600, "fY(JGD2000)": 35.622680 }, "geometry": { "type": "Point", "coordinates": [ 139.4146, 35.62268 ] } },
{ "type": "Feature", "properties": { "integer": 256, "都道府県コード": 13, "都道府県名": "東京都", "2次医療圏": "南多摩", "病院名称": "東海大学八王子病院", "住所": "東京都八王子市石川町１８３８", "災害拠点病院": "災害拠点病院", "救命救急センター": "NA", "DMAT指定医療機関": "DMAT", "被ばく医療機関": "NA", "fX(JGD2000)": 139.356900, "fY(JGD2000)": 35.673840 }, "geometry": { "type": "Point", "coordinates": [ 139.3569, 35.67384 ] } },
{ "type": "Feature", "properties": { "integer": 257, "都道府県コード": 13, "都道府県名": "東京都", "2次医療圏": "南多摩", "病院名称": "日医大多摩永山病院", "住所": "東京都多摩市永山１－７－１", "災害拠点病院": "災害拠点病院", "救命救急センター": "救命救急", "DMAT指定医療機関": "DMAT", "被ばく医療機関": "NA", "fX(JGD2000)": 139.446200, "fY(JGD2000)": 35.631140 }, "geometry": { "type": "Point", "coordinates": [ 139.4462, 35.63114 ] } },
{ "type": "Feature", "properties": { "integer": 258, "都道府県コード": 13, "都道府県名": "東京都", "2次医療圏": "南多摩", "病院名称": "八王子医療センター", "住所": "東京都八王子市館町１１６３", "災害拠点病院": "災害拠点病院", "救命救急センター": "救命救急", "DMAT指定医療機関": "DMAT", "被ばく医療機関": "NA", "fX(JGD2000)": 139.289300, "fY(JGD2000)": 35.631950 }, "geometry": { "type": "Point", "coordinates": [ 139.2893, 35.63195 ] } },
{ "type": "Feature", "properties": { "integer": 259, "都道府県コード": 13, "都道府県名": "東京都", "2次医療圏": "南多摩", "病院名称": "日野市立病院", "住所": "東京都日野市多摩平４－３－１", "災害拠点病院": "災害拠点病院", "救命救急センター": "NA", "DMAT指定医療機関": "DMAT", "被ばく医療機関": "NA", "fX(JGD2000)": 139.378200, "fY(JGD2000)": 35.666930 }, "geometry": { "type": "Point", "coordinates": [ 139.3782, 35.66693 ] } },
{ "type": "Feature", "properties": { "integer": 260, "都道府県コード": 13, "都道府県名": "東京都", "2次医療圏": "南多摩", "病院名称": "町田市民病院", "住所": "東京都町田市旭町２－１５－４１", "災害拠点病院": "災害拠点病院", "救命救急センター": "NA", "DMAT指定医療機関": "DMAT", "被ばく医療機関": "NA", "fX(JGD2000)": 139.438400, "fY(JGD2000)": 35.556870 }, "geometry": { "type": "Point", "coordinates": [ 139.4384, 35.55687 ] } },
{ "type": "Feature", "properties": { "integer": 261, "都道府県コード": 13, "都道府県名": "東京都", "2次医療圏": "南多摩", "病院名称": "南町田病院", "住所": "東京都町田市鶴間１００８－１", "災害拠点病院": "災害拠点病院", "救命救急センター": "NA", "DMAT指定医療機関": "DMAT", "被ばく医療機関": "NA", "fX(JGD2000)": 139.471200, "fY(JGD2000)": 35.507350 }, "geometry": { "type": "Point", "coordinates": [ 139.4712, 35.50735 ] } },
{ "type": "Feature", "properties": { "integer": 262, "都道府県コード": 13, "都道府県名": "東京都", "2次医療圏": "北多摩西部", "病院名称": "災害医療センター", "住所": "東京都立川市緑町３２５６", "災害拠点病院": "災害拠点病院", "救命救急センター": "救命救急", "DMAT指定医療機関": "DMAT", "被ばく医療機関": "NA", "fX(JGD2000)": 139.409700, "fY(JGD2000)": 35.706600 }, "geometry": { "type": "Point", "coordinates": [ 139.4097, 35.7066 ] } },
{ "type": "Feature", "properties": { "integer": 263, "都道府県コード": 13, "都道府県名": "東京都", "2次医療圏": "北多摩西部", "病院名称": "東大和病院", "住所": "東京都東大和市南街１－１３－１２", "災害拠点病院": "災害拠点病院", "救命救急センター": "NA", "DMAT指定医療機関": "DMAT", "被ばく医療機関": "NA", "fX(JGD2000)": 139.431800, "fY(JGD2000)": 35.741350 }, "geometry": { "type": "Point", "coordinates": [ 139.4318, 35.74135 ] } },
{ "type": "Feature", "properties": { "integer": 264, "都道府県コード": 13, "都道府県名": "東京都", "2次医療圏": "北多摩南部", "病院名称": "杏林大学附属病院", "住所": "東京都三鷹市新川６－２０－２", "災害拠点病院": "災害拠点病院", "救命救急センター": "救命救急", "DMAT指定医療機関": "DMAT", "被ばく医療機関": "NA", "fX(JGD2000)": 139.566200, "fY(JGD2000)": 35.677120 }, "geometry": { "type": "Point", "coordinates": [ 139.5662, 35.67712 ] } },
{ "type": "Feature", "properties": { "integer": 265, "都道府県コード": 13, "都道府県名": "東京都", "2次医療圏": "北多摩南部", "病院名称": "慈恵医大第三病院", "住所": "東京都狛江市和泉本町４－１１－１", "災害拠点病院": "災害拠点病院", "救命救急センター": "NA", "DMAT指定医療機関": "DMAT", "被ばく医療機関": "NA", "fX(JGD2000)": 139.566600, "fY(JGD2000)": 35.645510 }, "geometry": { "type": "Point", "coordinates": [ 139.5666, 35.64551 ] } },
{ "type": "Feature", "properties": { "integer": 266, "都道府県コード": 13, "都道府県名": "東京都", "2次医療圏": "北多摩南部", "病院名称": "都立小児総合医療センター", "住所": "東京都府中市武蔵台２－８－２９", "災害拠点病院": "災害拠点病院", "救命救急センター": "NA", "DMAT指定医療機関": "NA", "被ばく医療機関": "NA", "fX(JGD2000)": 139.461500, "fY(JGD2000)": 35.692510 }, "geometry": { "type": "Point", "coordinates": [ 139.4615, 35.69251 ] } },
{ "type": "Feature", "properties": { "integer": 267, "都道府県コード": 13, "都道府県名": "東京都", "2次医療圏": "北多摩南部", "病院名称": "都立多摩総合医療センター", "住所": "東京都府中市武蔵台２－８－２９", "災害拠点病院": "災害拠点病院", "救命救急センター": "救命救急", "DMAT指定医療機関": "DMAT", "被ばく医療機関": "NA", "fX(JGD2000)": 139.461500, "fY(JGD2000)": 35.692510 }, "geometry": { "type": "Point", "coordinates": [ 139.4615, 35.69251 ] } },
{ "type": "Feature", "properties": { "integer": 268, "都道府県コード": 13, "都道府県名": "東京都", "2次医療圏": "北多摩南部", "病院名称": "武蔵野赤十字病院", "住所": "東京都武蔵野市境南町１－２６－１", "災害拠点病院": "災害拠点病院", "救命救急センター": "救命救急", "DMAT指定医療機関": "DMAT", "被ばく医療機関": "NA", "fX(JGD2000)": 139.547900, "fY(JGD2000)": 35.696550 }, "geometry": { "type": "Point", "coordinates": [ 139.5479, 35.69655 ] } },
{ "type": "Feature", "properties": { "integer": 269, "都道府県コード": 13, "都道府県名": "東京都", "2次医療圏": "北多摩北部", "病院名称": "公立昭和病院", "住所": "東京都小平市花小金井８－１－１", "災害拠点病院": "災害拠点病院", "救命救急センター": "救命救急", "DMAT指定医療機関": "DMAT", "被ばく医療機関": "NA", "fX(JGD2000)": 139.503100, "fY(JGD2000)": 35.731460 }, "geometry": { "type": "Point", "coordinates": [ 139.5031, 35.73146 ] } },
{ "type": "Feature", "properties": { "integer": 270, "都道府県コード": 13, "都道府県名": "東京都", "2次医療圏": "北多摩北部", "病院名称": "国立病院機構 東京病院", "住所": "東京都清瀬市竹丘３－１－１", "災害拠点病院": "災害拠点病院", "救命救急センター": "NA", "DMAT指定医療機関": "DMAT", "被ばく医療機関": "NA", "fX(JGD2000)": 139.505300, "fY(JGD2000)": 35.766700 }, "geometry": { "type": "Point", "coordinates": [ 139.5053, 35.7667 ] } },
{ "type": "Feature", "properties": { "integer": 271, "都道府県コード": 13, "都道府県名": "東京都", "2次医療圏": "北多摩北部", "病院名称": "佐々総合病院", "住所": "東京都西東京市田無町４－２４－１５", "災害拠点病院": "災害拠点病院", "救命救急センター": "NA", "DMAT指定医療機関": "DMAT", "被ばく医療機関": "NA", "fX(JGD2000)": 139.539300, "fY(JGD2000)": 35.729400 }, "geometry": { "type": "Point", "coordinates": [ 139.5393, 35.7294 ] } },
{ "type": "Feature", "properties": { "integer": 272, "都道府県コード": 13, "都道府県名": "東京都", "2次医療圏": "北多摩北部", "病院名称": "多摩北部医療センター", "住所": "東京都東村山市青葉町１－７－１", "災害拠点病院": "災害拠点病院", "救命救急センター": "NA", "DMAT指定医療機関": "DMAT", "被ばく医療機関": "NA", "fX(JGD2000)": 139.492500, "fY(JGD2000)": 35.760120 }, "geometry": { "type": "Point", "coordinates": [ 139.4925, 35.76012 ] } },
{ "type": "Feature", "properties": { "integer": 273, "都道府県コード": 14, "都道府県名": "神奈川県", "2次医療圏": "横浜北部", "病院名称": "済生会横浜市東部病院", "住所": "神奈川県横浜市鶴見区下末吉３－６－１", "災害拠点病院": "災害拠点病院", "救命救急センター": "救命救急", "DMAT指定医療機関": "DMAT", "被ばく医療機関": "NA", "fX(JGD2000)": 139.675000, "fY(JGD2000)": 35.524080 }, "geometry": { "type": "Point", "coordinates": [ 139.675, 35.52408 ] } },
{ "type": "Feature", "properties": { "integer": 274, "都道府県コード": 14, "都道府県名": "神奈川県", "2次医療圏": "横浜北部", "病院名称": "昭和大学藤が丘病院", "住所": "神奈川県横浜市青葉区藤が丘１－３０", "災害拠点病院": "災害拠点病院", "救命救急センター": "救命救急", "DMAT指定医療機関": "DMAT", "被ばく医療機関": "NA", "fX(JGD2000)": 139.529400, "fY(JGD2000)": 35.544800 }, "geometry": { "type": "Point", "coordinates": [ 139.5294, 35.5448 ] } },
{ "type": "Feature", "properties": { "integer": 275, "都道府県コード": 14, "都道府県名": "神奈川県", "2次医療圏": "横浜北部", "病院名称": "昭和大学横浜市北部病院", "住所": "神奈川県横浜市都筑区茅ケ崎中央３５－１", "災害拠点病院": "災害拠点病院", "救命救急センター": "NA", "DMAT指定医療機関": "DMAT", "被ばく医療機関": "NA", "fX(JGD2000)": 139.570000, "fY(JGD2000)": 35.546680 }, "geometry": { "type": "Point", "coordinates": [ 139.57, 35.54668 ] } },
{ "type": "Feature", "properties": { "integer": 276, "都道府県コード": 14, "都道府県名": "神奈川県", "2次医療圏": "横浜北部", "病院名称": "横浜労災病院", "住所": "神奈川県横浜市港北区小机町３２１１", "災害拠点病院": "災害拠点病院", "救命救急センター": "救命救急", "DMAT指定医療機関": "DMAT", "被ばく医療機関": "NA", "fX(JGD2000)": 139.611200, "fY(JGD2000)": 35.511260 }, "geometry": { "type": "Point", "coordinates": [ 139.6112, 35.51126 ] } },
{ "type": "Feature", "properties": { "integer": 277, "都道府県コード": 14, "都道府県名": "神奈川県", "2次医療圏": "横浜西部", "病院名称": "けいゆう病院", "住所": "神奈川県横浜市西区みなとみらい３－７－３", "災害拠点病院": "災害拠点病院", "救命救急センター": "NA", "DMAT指定医療機関": "DMAT", "被ばく医療機関": "NA", "fX(JGD2000)": 139.633800, "fY(JGD2000)": 35.458830 }, "geometry": { "type": "Point", "coordinates": [ 139.6338, 35.45883 ] } },
{ "type": "Feature", "properties": { "integer": 278, "都道府県コード": 14, "都道府県名": "神奈川県", "2次医療圏": "横浜西部", "病院名称": "国立病院機構横浜医療センター", "住所": "神奈川県横浜市戸塚区原宿３－６０－２", "災害拠点病院": "災害拠点病院", "救命救急センター": "救命救急", "DMAT指定医療機関": "DMAT", "被ばく医療機関": "NA", "fX(JGD2000)": 139.505100, "fY(JGD2000)": 35.378500 }, "geometry": { "type": "Point", "coordinates": [ 139.5051, 35.3785 ] } },
{ "type": "Feature", "properties": { "integer": 279, "都道府県コード": 14, "都道府県名": "神奈川県", "2次医療圏": "横浜西部", "病院名称": "聖マリアンナ医大横浜市西部病院", "住所": "神奈川県横浜市旭区矢指町１１９７－１", "災害拠点病院": "災害拠点病院", "救命救急センター": "救命救急", "DMAT指定医療機関": "DMAT", "被ばく医療機関": "NA", "fX(JGD2000)": 139.503400, "fY(JGD2000)": 35.477530 }, "geometry": { "type": "Point", "coordinates": [ 139.5034, 35.47753 ] } },
{ "type": "Feature", "properties": { "integer": 280, "都道府県コード": 14, "都道府県名": "神奈川県", "2次医療圏": "横浜西部", "病院名称": "横浜市立市民病院", "住所": "神奈川県横浜市保土ケ谷区岡沢町５６", "災害拠点病院": "災害拠点病院", "救命救急センター": "救命救急", "DMAT指定医療機関": "DMAT", "被ばく医療機関": "NA", "fX(JGD2000)": 139.599200, "fY(JGD2000)": 35.472210 }, "geometry": { "type": "Point", "coordinates": [ 139.5992, 35.47221 ] } },
{ "type": "Feature", "properties": { "integer": 281, "都道府県コード": 14, "都道府県名": "神奈川県", "2次医療圏": "横浜南部", "病院名称": "済生会横浜市南部病院", "住所": "神奈川県横浜市港南区港南台３－２－１０", "災害拠点病院": "災害拠点病院", "救命救急センター": "NA", "DMAT指定医療機関": "DMAT", "被ばく医療機関": "NA", "fX(JGD2000)": 139.578900, "fY(JGD2000)": 35.375230 }, "geometry": { "type": "Point", "coordinates": [ 139.5789, 35.37523 ] } },
{ "type": "Feature", "properties": { "integer": 282, "都道府県コード": 14, "都道府県名": "神奈川県", "2次医療圏": "横浜南部", "病院名称": "みなと赤十字病院", "住所": "神奈川県横浜市中区新山下３－１２－１", "災害拠点病院": "災害拠点病院", "救命救急センター": "救命救急", "DMAT指定医療機関": "DMAT", "被ばく医療機関": "NA", "fX(JGD2000)": 139.664100, "fY(JGD2000)": 35.436640 }, "geometry": { "type": "Point", "coordinates": [ 139.6641, 35.43664 ] } },
{ "type": "Feature", "properties": { "integer": 283, "都道府県コード": 14, "都道府県名": "神奈川県", "2次医療圏": "横浜南部", "病院名称": "横浜市大附属病院", "住所": "神奈川県横浜市金沢区福浦３－９", "災害拠点病院": "災害拠点病院", "救命救急センター": "NA", "DMAT指定医療機関": "DMAT", "被ばく医療機関": "NA", "fX(JGD2000)": 139.651400, "fY(JGD2000)": 35.343130 }, "geometry": { "type": "Point", "coordinates": [ 139.6514, 35.34313 ] } },
{ "type": "Feature", "properties": { "integer": 284, "都道府県コード": 14, "都道府県名": "神奈川県", "2次医療圏": "横浜南部", "病院名称": "横浜市立大学附属市民総合医療センター", "住所": "神奈川県横浜市南区浦舟町４－５７", "災害拠点病院": "災害拠点病院", "救命救急センター": "救命救急", "DMAT指定医療機関": "DMAT", "被ばく医療機関": "NA", "fX(JGD2000)": 139.624600, "fY(JGD2000)": 35.433760 }, "geometry": { "type": "Point", "coordinates": [ 139.6246, 35.43376 ] } },